stop_id,stop_name,stop_lat,stop_lon
390,19TH AVENUE & HOLLOWAY ST,37.72119,-122.475096
913,DUBLIN ST & LAGRANDE AVE,37.719192,-122.425802
3003,2ND ST & BRANNAN ST   ,37.781827,-122.391945
3004,2ND ST & BRANNAN ST   ,37.781854,-122.392232
3009,2ND ST & HARRISON ST   ,37.784532,-122.395325
3010,2ND ST & HARRISON ST   ,37.784095,-122.395016
3011,2ND ST & HOWARD ST   ,37.786559,-122.398109
3013,2ND ST & STEVENSON ST   ,37.78862,-122.40065
3015,2ND ST & TOWNSEND ST   ,37.780622,-122.390685
3016,3RD ST & 4TH ST  ,37.772618,-122.389786
3018,BACON ST & SAN BRUNO AVE   ,37.727739,-122.40324
3019,BACON ST & SAN BRUNO AVE  ,37.727645,-122.403269
3020,BACON ST & SOMERSET ST  ,37.72667,-122.40746
3021,BACON ST & SOMERSET ST  ,37.72654,-122.40766
3023,BOWLEY ST & GIBSON RD,37.790249,-122.482263
3024,BAKER ST & GREENWICH ST  ,37.797606,-122.445693
3025,BATTERY ST & BROADWAY  ,37.798311,-122.401093
3026,BATTERY ST & FILBERT ST  ,37.80221,-122.401894
3029,BATTERY ST & GREEN ST  ,37.80055,-122.40151
3030,BATTERY ST & JACKSON ST  ,37.79686,-122.40077
3031,BAY ST & MIDWAY ST  ,37.806094,-122.409161
3032,BALBOA ST & 4TH AVE  ,37.777396,-122.461751
3033,BALBOA ST & 4TH AVE  ,37.777262,-122.461969
3034,BALBOA ST & 6TH AVE  ,37.777289,-122.464158
3035,BALBOA ST & 6TH AVE  ,37.777173,-122.463849
3036,BALBOA ST & 8TH AVE  ,37.777199,-122.466038
3037,BALBOA ST & 8TH AVE  ,37.777065,-122.466256
3038,BALBOA ST & 10TH AVE  ,37.777101,-122.46817
3039,BALBOA ST & 10TH AVE  ,37.776967,-122.468388
3040,BALBOA ST & 12TH AVE  ,37.777002,-122.470313
3041,BALBOA ST & 12TH AVE  ,37.776868,-122.470531
3042,BALBOA ST & 14TH AVE  ,37.77678,-122.4727
3043,BALBOA ST & 17TH AVE  ,37.77676,-122.475769
3044,BALBOA ST & 17TH AVE  ,37.776626,-122.475987
3045,BALBOA ST & 19TH AVE  ,37.776662,-122.477912
3046,BALBOA ST & 19TH AVE  ,37.776528,-122.47813
3047,BALBOA ST & 21ST AVE  ,37.776563,-122.480056
3048,BALBOA ST & 21ST AVE  ,37.776429,-122.480273
3049,BALBOA ST & 23RD AVE  ,37.77647,-122.48219
3050,BALBOA ST & 23RD AVE  ,37.77633,-122.482417
3051,BALBOA ST & 25TH AVE  ,37.776356,-122.484606
3052,BALBOA ST & 25TH AVE  ,37.77624,-122.484296
3053,BALBOA ST & 28TH AVE  ,37.776222,-122.487551
3054,BALBOA ST & 28TH AVE  ,37.776088,-122.487769
3055,BALBOA ST & 30TH AVE  ,37.776114,-122.489958
3056,BALBOA ST & 30TH AVE  ,37.775989,-122.489912
3057,BALBOA ST & 32ND AVE  ,37.776024,-122.491838
3058,BALBOA ST & 32ND AVE  ,37.77589,-122.492056
3059,BALBOA ST & 34TH AVE  ,37.775791,-122.494199
3060,BALBOA ST & 35TH AVE   ,37.775898,-122.494577
3061,BALBOA ST & 37TH AVE  ,37.775781,-122.497202
3062,BALBOA ST & 37TH AVE  ,37.775647,-122.497419
3063,BALBOA ST & 40TH AVE  ,37.775637,-122.500399
3064,BALBOA ST & 40TH AVE  ,37.775503,-122.500617
3065,BALBOA ST & 43RD AVE  ,37.775484,-122.50362
3066,BALBOA ST & 43RD AVE  ,37.77535,-122.503838
3067,BALBOA ST & ARGUELLO BLVD  ,37.77747,-122.45886
3070,BALBOA ST & PARK PRESIDIO BLVD,37.776895,-122.472227
3071,BALBOA ST & PARK PRESIDIO BLVD,37.776788,-122.472411
3072,BRODERICK ST & BAY ST  ,37.801541,-122.444798
3074,BRODERICK ST & BEACH ST  ,37.803415,-122.445176
3075,BRODERICK ST & FRANCISCO ST  ,37.800622,-122.444603
3076,BRODERICK ST & JEFFERSON ST  ,37.804343,-122.44536
3077,BRODERICK ST & NORTH POINT ST ,37.802478,-122.444982
3082,BROADWAY & GRANT AVE  ,37.797831,-122.406345
3084,BROADWAY & MONTGOMERY ST  ,37.798134,-122.40396
3085,BROADWAY & STEINER ST  ,37.794131,-122.436442
3086,BROADWAY & STEINER ST  ,37.794056,-122.436278
3087,BROADWAY & STOCKTON ST  ,37.797591,-122.408294
3089,BEALE ST & MISSION ST   ,37.791939,-122.396879
3090,BEACH ST & DIVISADERO ST  ,37.803629,-122.443674
3092,BEACH ST & MASON ST  ,37.807407,-122.414125
3093,BEACH ST & POLK ST   ,37.806375,-122.423195
3094,BEACH ST & SCOTT ST   ,37.80378,-122.44258
3095,BEACH ST & STOCKTON ST  ,37.807841,-122.41081
3096,BEMIS ST & MOFFITT ST   ,37.736655,-122.431181
3103,3RD ST & 20TH ST  ,37.76079,-122.38846
3104,3RD ST & 20TH ST  ,37.76059,-122.3887
3107,3RD ST & 23RD ST  ,37.75569,-122.3879
3108,3RD ST & 23RD ST  ,37.75506,-122.3881
3113,3RD ST & BAYVIEW ST  ,37.73228,-122.391559
3114,3RD ST & BRANNAN ST   ,37.779285,-122.393185
3115,3RD ST & CARROLL AVE   ,37.72567,-122.3943
3116,3RD ST & CARROLL AVE   ,37.7253,-122.3942
3122,3RD ST & EVANS AVE   ,37.742682,-122.387908
3123,3RD ST & EVANS AVE  ,37.74244,-122.38815
3124,3RD ST & FOLSOM ST   ,37.784204,-122.399326
3127,3RD ST & HUDSON AVE   ,37.74012,-122.3887
3128,3RD ST & HOWARD ST   ,37.784945,-122.400254
3129,3RD ST & INNES AVE   ,37.73932,-122.38926
3134,3RD ST & LA SALLE AVE   ,37.737213,-122.389803
3135,3RD ST & KIRKWOOD AVE,37.737927,-122.389619
3136,3RD ST & STEVENSON ST,37.786373,-122.40211
3141,3RD ST & PALOU AVE   ,37.734091,-122.390928
3143,3RD ST & OAKDALE AVE,37.734787,-122.390721
3144,3RD ST & PERRY ST   ,37.782106,-122.396805
3145,3RD ST & REVERE AVE   ,37.73225,-122.39146
3146,3RD ST & SALINAS AVE  ,37.72078,-122.39649
3149,3RD ST & VAN DYKE AVE   ,37.729238,-122.392593
3150,3RD ST & WILLIAMS AVE  ,37.729166,-122.392776
3153,4TH ST & 3RD ST   ,37.772966,-122.389694
3161,4TH ST & MARKET ST   ,37.785527,-122.405675
3163,4TH ST & TOWNSEND ST   ,37.777109,-122.395135
3164,4TH ST & TOWNSEND ST,37.776894,-122.394895
3166,5TH ST & BRANNAN ST   ,37.77654,-122.39857
3168,5TH ST & FOLSOM ST   ,37.78031,-122.40357
3170,5TH ST & HOWARD ST   ,37.78145,-122.40475
3171,5TH ST & HOWARD ST   ,37.78123,-122.40474
3172,5TH ST & MISSION ST   ,37.78296,-122.40665
3173,5TH ST & MISSION ST   ,37.78277,-122.40665
3174,5TH ST & TOWNSEND ST   ,37.77549,-122.39716
3177,6TH AVE & BALBOA ST  ,37.777146,-122.463918
3178,6TH AVE & BALBOA ST  ,37.776985,-122.46409
3181,6TH AVE & CLEMENT ST  ,37.783026,-122.464526
3182,6TH AVE & CORNWALL ST  ,37.784673,-122.46448
3183,6TH AVE & FULTON ST  ,37.773809,-122.463745
3184,6TH AVE & GEARY BLVD  ,37.780876,-122.464182
3185,6TH AVE & GEARY BLVD  ,37.780768,-122.464354
3187,6TH ST & HARRISON ST   ,37.77732,-122.40424
3188,1697 7TH AVE  ,37.756597,-122.463741
3189,1697 7TH AVE,37.756767,-122.46357
3191,7TH ST & BRANNAN ST   ,37.773266,-122.403367
3192,7TH ST & FOLSOM ST   ,37.776864,-122.407904
3193,7TH ST & HARRISON ST   ,37.77573,-122.40646
3194,7TH ST & HOWARD ST   ,37.777935,-122.409222
3195,7TH ST & MISSION ST   ,37.779327,-122.411032
3196,7TH ST & MARKET ST   ,37.780309,-122.412395
3197,7TH ST & TOWNSEND ST   ,37.772034,-122.401821
3200,8TH AVE & CABRILLO ST  ,37.775022,-122.466095
3201,8TH AVE & FULTON ST  ,37.773639,-122.465808
3202,8TH AVE & FULTON ST  ,37.773478,-122.46598
3203,8TH ST & BRANNAN ST   ,37.771554,-122.405901
3204,8TH ST & BRYANT ST   ,37.772536,-122.407127
3205,8TH ST & FOLSOM ST   ,37.774767,-122.409922
3206,8TH ST & HARRISON ST   ,37.773536,-122.408376
3208,8TH ST & MISSION ST   ,37.77724,-122.413027
3209,8TH ST & MARKET ST   ,37.778498,-122.414597
3210,8TH ST & TOWNSEND ST   ,37.770161,-122.404126
3211,9TH AVE & IRVING ST  ,37.764288,-122.466241
3212,9TH AVE & IRVING ST  ,37.763913,-122.466241
3213,9TH AVE & IRVING ST  ,37.763797,-122.46639
3214,9TH AVE & JUDAH ST  ,37.762093,-122.46608
3215,9TH AVE & JUDAH ST  ,37.76204,-122.466241
3216,9TH AVE & KIRKHAM ST  ,37.760407,-122.466149
3217,9TH AVE & KIRKHAM ST  ,37.760237,-122.465954
3218,9TH AVE & LAWTON ST  ,37.758533,-122.466022
3219,9TH AVE & LAWTON ST  ,37.758364,-122.465827
3220,9TH AVE & LINCOLN WAY  ,37.76585,-122.466345
3221,9TH AVE & LINCOLN WAY  ,37.765689,-122.466517
3222,9TH AVE & MORAGA ST  ,37.756677,-122.465884
3223,9TH AVE & MORAGA ST  ,37.756508,-122.465689
3224,9TH AVE & NORIEGA ST  ,37.754804,-122.465758
3225,9TH AVE & NORIEGA ST  ,37.754634,-122.465551
3226,9TH AVE & ORTEGA ST  ,37.752939,-122.465631
3229,9TH ST & AVENUE H  ,37.825196,-122.370063
3230,10TH AVE & ORTEGA ST  ,37.752724,-122.466502
3231,10TH AVE & PACHECO ST  ,37.75086,-122.466376
3232,10TH AVE & PACHECO ST  ,37.750699,-122.466547
3233,10TH AVE & QUINTARA ST  ,37.749325,-122.466261
3234,10TH AVE & QUINTARA ST  ,37.749164,-122.466432
3235,11TH ST & BRYANT ST   ,37.769807,-122.4113
3238,11TH ST & HARRISON ST   ,37.770691,-122.412526
3239,11TH ST & HARRISON ST   ,37.770557,-122.412492
3240,11TH ST & HOWARD ST   ,37.77333,-122.41573
3241,11TH ST & HOWARD ST   ,37.77283,-122.41538
3243,11TH ST & MISSION ST   ,37.774038,-122.416891
3244,11TH ST & MARKET ST   ,37.7755,-122.41852
3245,11TH ST & MARKET ST   ,37.775368,-122.418575
3247,14TH AVE & QUINTARA ST   ,37.74887,-122.47074
3248,14TH AVE & SANTIAGO ST  ,37.74503,-122.4703
3249,14TH AVE & TARAVAL ST  ,37.7434,-122.4703
3250,14TH AVE & TARAVAL ST  ,37.74317,-122.47017
3251,14TH AVE & ULLOA ST  ,37.7416,-122.47004
3252,14TH AVE & ULLOA ST  ,37.74153,-122.47018
3253,14TH ST & ALPINE TER  ,37.767296,-122.437213
3254,14TH ST & CHURCH ST  ,37.767768,-122.429088
3255,14TH ST & CHURCH ST  ,37.76767,-122.42913
3256,14TH ST & CASTRO ST  ,37.76738,-122.43584
3257,14TH ST & CASTRO ST  ,37.76728,-122.43578
3258,14TH ST & NOE ST  ,37.76751,-122.43327
3259,14TH ST & NOE ST  ,37.7674,-122.43356
3260,14TH ST & SANCHEZ ST,37.76767,-122.431105
3261,14TH ST & SANCHEZ ST  ,37.767536,-122.431277
3262,15TH AVE & NORIEGA ST  ,37.75411,-122.47217
3263,15TH AVE & ORTEGA ST  ,37.75268,-122.47206
3264,15TH AVE & PACHECO ST  ,37.75081,-122.47196
3265,15TH AVE & QUINTARA ST  ,37.74891,-122.47183
3266,15TH AVE & TARAVAL ST  ,37.743124,-122.471297
3267,15TH AVE & TARAVAL ST  ,37.743069,-122.471405
3270,15TH AVE & WEST PORTAL AVE   ,37.736387,-122.470381
3272,16TH AVE & LAWTON ST   ,37.75811,-122.47367
3273,16TH AVE & LAWTON ST  ,37.7593,-122.4737
3275,16TH AVE & LOMITA AVE  ,37.75697,-122.47351
3276,16TH AVE & MORAGA ST   ,37.7563,-122.47361
3277,16TH AVE & MORAGA ST  ,37.75636,-122.47368
3278,16TH AVE & NORIEGA ST  ,37.75425,-122.47321
3279,16TH AVE & ORTEGA ST  ,37.7524,-122.47309
3280,16TH AVE & PACHECO ST  ,37.75054,-122.47295
3281,16TH ST & BRYANT ST  ,37.765658,-122.410294
3282,16TH ST & BRYANT ST  ,37.765595,-122.410408
3283,16TH ST & CHURCH ST  ,37.764579,-122.428523
3284,16TH ST & DOLORES ST  ,37.764731,-122.426156
3285,16TH ST & DOLORES ST  ,37.764575,-122.426579
3286,16TH ST & GUERRERO ST  ,37.764853,-122.423959
3287,16TH ST & GUERRERO ST  ,37.76472,-122.424256
3288,16TH ST & HARRISON ST  ,37.765523,-122.412976
3289,16TH ST & HARRISON ST  ,37.765377,-122.41329
3291,16TH ST & MISSION ST  ,37.765143,-122.4196
3292,16TH ST & MISSION ST  ,37.76502,-122.41928
3293,16TH ST & MISSION ST  ,37.764983,-122.419835
3295,16TH ST & POTRERO AVE  ,37.7658,-122.407624
3296,16TH ST & POTRERO AVE  ,37.765764,-122.407612
3297,16TH ST & SAN BRUNO AVE  ,37.765861,-122.405515
3299,16TH ST & SHOTWELL ST  ,37.765218,-122.416048
3300,16TH ST & VALENCIA ST  ,37.764987,-122.421746
3301,16TH ST & VALENCIA ST  ,37.764849,-122.422056
3302,16TH ST & VERMONT ST  ,37.766039,-122.40469
3304,17TH AVE & RIVERA ST  ,37.74698,-122.47391
3305,17TH AVE & RIVERA ST  ,37.746745,-122.473707
3306,17TH AVE & SANTIAGO ST  ,37.74511,-122.47374
3307,17TH ST & BELVEDERE ST  ,37.76176,-122.44768
3309,17TH ST & CLAYTON ST  ,37.761854,-122.446702
3310,17TH ST & COLE ST  ,37.76168,-122.44898
3311,17TH ST & CASTRO ST  ,37.762576,-122.434979
3312,17TH ST & DE HARO ST  ,37.764904,-122.401451
3313,17TH ST & DE HARO ST  ,37.764771,-122.401711
3314,17TH ST & DIAMOND ST  ,37.762415,-122.437489
3317,17TH ST & KANSAS ST  ,37.764727,-122.403544
3321,18TH ST & 3RD ST  ,37.762992,-122.388925
3322,18TH ST & CHURCH ST  ,37.76137,-122.428195
3323,18TH ST & CHURCH ST  ,37.761245,-122.428138
3324,18TH ST & CONNECTICUT ST  ,37.76258,-122.397352
3325,18TH ST & CASTRO ST  ,37.760952,-122.435151
3326,18TH ST & CASTRO ST  ,37.760845,-122.434842
3327,18TH ST & DANVERS ST  ,37.760355,-122.44354
3328,18TH ST & DANVERS ST  ,37.76024,-122.44349
3329,18TH ST & DIAMOND ST  ,37.760702,-122.437294
3330,18TH ST & DOLORES ST  ,37.761486,-122.426236
3331,18TH ST & DOLORES ST  ,37.761388,-122.425927
3332,18TH ST & EUREKA ST  ,37.760765,-122.438154
3333,18TH ST & GUERRERO ST  ,37.761619,-122.423955
3334,18TH ST & GUERRERO ST  ,37.761521,-122.423646
3335,18TH ST & HATTIE ST  ,37.760586,-122.441087
3336,18TH ST & HATTIE ST  ,37.760488,-122.440778
3337,18TH ST & MINNESOTA ST  ,37.762874,-122.390848
3338,18TH ST & MISSION ST  ,37.761895,-122.419509
3339,18TH ST & MARKET ST  ,37.759792,-122.444445
3340,18TH ST & NOE ST  ,37.761094,-122.432688
3341,18TH ST & NOE ST  ,37.76096,-122.432905
3342,18TH ST & PENNSYLVANIA AVE  ,37.762828,-122.393471
3343,18TH ST & PENNSYLVANIA AVE  ,37.762732,-122.39322
3344,18TH ST & SANCHEZ ST  ,37.761228,-122.430464
3345,18TH ST & SANCHEZ ST  ,37.761094,-122.430682
3346,18TH ST & TEXAS ST  ,37.762701,-122.395422
3347,18TH ST & TEXAS ST  ,37.762621,-122.39516
3348,18TH ST & VALENCIA ST  ,37.761762,-122.421732
3349,18TH ST & VALENCIA ST  ,37.761663,-122.421423
3352,19TH AVE & BUCKINGHAM WAY  ,37.725732,-122.475063
3354,19TH AVE & EUCALYPTUS DR  ,37.731175,-122.474962
3355,19TH AVE & EUCALYPTUS DR  ,37.73097,-122.47472
3356,19TH AVE & HOLLOWAY AVE  ,37.72111,-122.475302
3357,19TH AVE & HOLLOWAY AVE,37.72094,-122.475004
3358,19TH AVE & HOLLOWAY AVE  ,37.721074,-122.475233
3359,19TH AVE & IRVING ST  ,37.76368,-122.47731
3360,19TH AVE & IRVING ST  ,37.76343,-122.47704
3361,19TH AVE & JUNIPERO SERRA BLVD ,37.716889,-122.472275
3362,19TH AVE & JUNIPERO SERRA BLVD ,37.71805,-122.47318
3363,19TH AVE & JUNIPERO SERRA BLVD ,37.717323,-122.47297
3364,19TH AVE & JUDAH ST  ,37.76158,-122.47687
3365,19TH AVE & JUDAH ST  ,37.7614,-122.47711
3366,19TH AVE & KIRKHAM ST  ,37.76015,-122.47671
3367,19TH AVE & KIRKHAM ST  ,37.75995,-122.47695
3368,19TH AVE & LAWTON ST  ,37.75786,-122.47654
3369,19TH AVE & LAWTON ST  ,37.757889,-122.476782
3371,19TH AVE & LINCOLN WAY  ,37.765375,-122.477404
3372,19TH AVE & MORAGA ST  ,37.75622,-122.47669
3373,19TH AVE & MORAGA ST  ,37.75599,-122.47642
3374,19TH AVE & NORIEGA ST  ,37.75412,-122.47629
3375,19TH AVE & NORIEGA ST  ,37.75392,-122.47653
3376,19TH AVE & RANDOLPH ST  ,37.7162,-122.47167
3377,19TH AVE & OCEAN AVE  ,37.73279,-122.4751
3378,19TH AVE & OCEAN AVE  ,37.73212,-122.4748
3379,19TH AVE & ORTEGA ST  ,37.75272,-122.47619
3380,19TH AVE & ORTEGA ST  ,37.75206,-122.4764
3381,19TH AVE & PACHECO ST  ,37.7504,-122.47603
3382,19TH AVE & PACHECO ST  ,37.7502,-122.47627
3383,19TH AVE & QUINTARA ST  ,37.74853,-122.4759
3384,19TH AVE & QUINTARA ST  ,37.7483,-122.47614
3385,19TH AVE & RANDOLPH ST   ,37.714282,-122.469618
3387,19TH AVE & RANDOLPH ST   ,37.714443,-122.469998
3388,19TH AVE & RIVERA ST  ,37.74667,-122.47577
3389,19TH AVE & RIVERA ST  ,37.74647,-122.47601
3390,19TH AVE & SLOAT BLVD  ,37.734556,-122.475203
3391,19TH AVE & SLOAT BLVD  ,37.734717,-122.474974
3392,19TH AVE & SANTIAGO ST  ,37.74524,-122.47567
3393,19TH AVE & SANTIAGO ST  ,37.74507,-122.4759
3394,19TH AVE & TARAVAL ST  ,37.74331,-122.47554
3395,19TH AVE & TARAVAL ST  ,37.74318,-122.47578
3396,19TH AVE & ULLOA ST  ,37.74149,-122.47543
3397,19TH AVE & ULLOA ST  ,37.74129,-122.47568
3398,19TH AVE & VICENTE ST  ,37.7392,-122.47528
3399,19TH AVE & VICENTE ST  ,37.73901,-122.47553
3400,19TH AVE & WAWONA ST  ,37.73757,-122.47542
3401,19TH AVE & WAWONA ST  ,37.73734,-122.47515
3402,19TH AVE & WINSTON DR  ,37.72719,-122.47468
3403,19TH AVE & WINSTON DR  ,37.727017,-122.474937
3404,20TH AVE & BUCKINGHAM WAY  ,37.73042,-122.47588
3405,20TH AVE & BUCKINGHAM WAY  ,37.729997,-122.476049
3406,20TH AV/MACY'S STONESTOWN,37.72887,-122.47568
3408,20TH AVE & WINSTON DR  ,37.726874,-122.475945
3409,20TH AVE & WINSTON DR  ,37.72634,-122.47613
3410,20TH ST & 3RD ST  ,37.760536,-122.388707
3411,20TH ST & 3RD ST  ,37.760465,-122.388409
3412,20TH ST & ARKANSAS ST  ,37.75996,-122.39808
3413,20TH ST & ARKANSAS ST  ,37.75987,-122.39836
3414,20TH ST & COLLINGWOOD ST  ,37.757677,-122.435966
3415,20TH ST & EUREKA ST  ,37.757561,-122.437845
3424,21ST ST & DOUGLASS ST  ,37.75536,-122.43901
3425,22ND AVE & IRVING ST  ,37.763679,-122.480268
3426,22ND AVE & JUDAH ST  ,37.761457,-122.480106
3427,22ND AVE & KIRKHAM ST  ,37.759592,-122.47998
3428,22ND AVE & LAWTON ST  ,37.757754,-122.479853
3429,22ND AVE & LINCOLN WAY  ,37.765186,-122.480372
3430,22ND AVE & MORAGA ST  ,37.755898,-122.479714
3431,22ND AVE & NORIEGA ST  ,37.754337,-122.479611
3432,22ND ST & 3RD ST  ,37.75801,-122.38809
3435,22ND ST & IOWA ST  ,37.757771,-122.3918
3436,22ND ST & MINNESOTA ST  ,37.75787,-122.39008
3437,22ND ST & MINNESOTA ST  ,37.75779,-122.39
3439,22ND ST & PENNSYLVANIA AVE  ,37.757585,-122.393052
3441,23RD AVE & IRVING ST  ,37.763134,-122.481482
3442,23RD AVE & JUDAH ST  ,37.761608,-122.481378
3443,23RD AVE & KIRKHAM ST  ,37.759735,-122.48124
3444,23RD AVE & LAWTON ST  ,37.75787,-122.481113
3445,23RD AVE & LINCOLN WAY  ,37.765026,-122.481609
3446,23RD AVE & MORAGA ST  ,37.756014,-122.480986
3447,23RD AVE & NORIEGA ST  ,37.75414,-122.48086
3448,23RD ST & DIAMOND ST  ,37.752698,-122.436539
3449,23RD ST & EUREKA ST  ,37.75277,-122.437387
3450,23RD ST & KANSAS ST,37.754448,-122.402668
3452,23RD ST & RHODE ISLAND ST  ,37.75451,-122.401694
3453,23RD ST & UTAH ST  ,37.75442,-122.40494
3454,23RD ST & UTAH ST  ,37.754298,-122.405304
3455,23RD ST & VERMONT ST  ,37.75448,-122.40391
3456,23RD ST & VERMONT ST  ,37.754395,-122.403631
3457,23RD ST & WISCONSIN ST  ,37.75481,-122.39856
3458,24TH ST & BRYANT ST  ,37.752853,-122.409281
3459,24TH ST & BRYANT ST  ,37.752755,-122.408971
3460,24TH ST & CHURCH ST  ,37.751778,-122.427327
3461,24TH ST & CHURCH ST  ,37.751644,-122.427545
3462,24TH ST & CASTRO ST  ,37.75136,-122.434248
3463,24TH ST & CASTRO ST  ,37.751262,-122.433939
3464,24TH ST & DIAMOND ST  ,37.751226,-122.436184
3465,24TH ST & DIAMOND ST  ,37.751092,-122.436402
3466,24TH ST & DOLORES ST  ,37.751903,-122.425311
3467,24TH ST & DOLORES ST  ,37.751787,-122.425265
3468,24TH ST & DOUGLASS ST  ,37.751102,-122.438361
3469,24TH ST & FOLSOM ST  ,37.75256,-122.414242
3470,24TH ST & FOLSOM ST  ,37.752462,-122.413933
3471,24TH ST & GUERRERO ST  ,37.752045,-122.422767
3472,24TH ST & GUERRERO ST  ,37.751911,-122.422985
3473,24TH ST & HARRISON ST  ,37.752694,-122.412054
3474,24TH ST & HARRISON ST  ,37.752587,-122.411744
3475,24TH ST & HOFFMAN AVE  ,37.750977,-122.440504
3476,24TH ST & MISSION ST  ,37.752321,-122.418333
3477,24TH ST & MISSION ST  ,37.752178,-122.41855
3478,24TH ST & NOE ST  ,37.751511,-122.431773
3480,24TH ST & POTRERO AVE  ,37.75299,-122.40669
3481,24TH ST & SANCHEZ ST  ,37.751645,-122.42955
3482,24TH ST & SANCHEZ ST  ,37.751511,-122.429768
3483,24TH ST & SOUTH VAN NESS AVE  ,37.752445,-122.416156
3484,24TH ST & SOUTH VAN NESS AVE  ,37.752311,-122.416373
3485,24TH ST & VALENCIA ST  ,37.752178,-122.420556
3486,24TH ST & VALENCIA ST  ,37.752062,-122.42051
3489,25TH AVE & BALBOA ST  ,37.776419,-122.48456
3490,25TH AVE & BALBOA ST  ,37.776187,-122.484365
3491,25TH AVE & CALIFORNIA ST  ,37.784003,-122.485102
3492,25TH AVE & CALIFORNIA ST  ,37.783807,-122.48485
3495,25TH AVE & CLEMENT ST  ,37.782147,-122.484975
3496,25TH AVE & CLEMENT ST  ,37.781951,-122.484712
3497,25TH AVE & EL CAMINO DEL MAR  ,37.787536,-122.485139
3498,25TH AVE & EL CAMINO DEL MAR  ,37.787367,-122.485356
3499,25TH AVE & FULTON ST  ,37.772689,-122.484295
3500,25TH AVE & GEARY BLVD  ,37.780255,-122.484837
3501,25TH AVE & GEARY BLVD  ,37.779925,-122.484619
3502,25TH AVE & LAKE ST  ,37.785868,-122.485241
3503,25TH AVE & LAKE ST  ,37.785689,-122.485034
3504,25TH ST & CONNECTICUT ST  ,37.75236,-122.39634
3505,25TH ST & CONNECTICUT ST,37.752242,-122.39662
3507,25TH ST & DAKOTA ST  ,37.7525,-122.394832
3510,25TH ST & NOE ST  ,37.749673,-122.431659
3511,25TH ST & POTRERO AVE   ,37.751407,-122.40668
3512,25TH ST & WISCONSIN ST  ,37.75224,-122.39831
3513,25TH ST & WISCONSIN ST  ,37.752162,-122.398293
3514,26TH ST & CASTRO ST  ,37.74815,-122.43363
3516,26TH ST & DE HARO ST  ,37.75086,-122.40015
3517,26TH ST & DE HARO ST  ,37.750753,-122.400024
3519,26TH ST & MISSION ST  ,37.749001,-122.417818
3520,26TH ST & NOE ST  ,37.74827,-122.43177
3521,26TH ST & NOE ST  ,37.748174,-122.431636
3522,26TH ST & RHODE ISLAND ST  ,37.750718,-122.401124
3523,26TH ST & SOUTH VAN NESS AVE  ,37.749108,-122.416065
3524,26TH ST & WISCONSIN ST  ,37.75111,-122.39866
3525,29TH AVE & VICENTE ST  ,37.73896,-122.48611
3526,30TH AVE & QUINTARA ST  ,37.74799,-122.4878
3527,30TH AVE & QUINTARA ST  ,37.74808,-122.487926
3528,30TH AVE & RIVERA ST  ,37.74636,-122.4878
3529,30TH AVE & RIVERA ST  ,37.74616,-122.48767
3530,30TH AVE & SANTIAGO ST  ,37.74451,-122.48765
3531,30TH AVE & SANTIAGO ST  ,37.74427,-122.48756
3532,30TH AVE & TARAVAL ST  ,37.742646,-122.487545
3533,30TH AVE & TARAVAL ST  ,37.74241,-122.48743
3534,30TH AVE & ULLOA ST  ,37.74077,-122.48739
3535,30TH ST & CHURCH ST  ,37.742159,-122.426369
3536,30TH ST & CHURCH ST  ,37.74204,-122.42676
3537,30TH ST & DOLORES ST  ,37.742304,-122.424026
3538,30TH ST & DOLORES ST  ,37.74217,-122.424457
3540,30TH ST & MISSION ST  ,37.742408,-122.422037
3541,30TH ST & MISSION ST  ,37.74231,-122.42217
3542,30TH ST & NOE ST  ,37.74188,-122.43079
3543,30TH ST & SANCHEZ ST  ,37.74202,-122.4286
3544,30TH ST & SANCHEZ ST  ,37.74191,-122.42902
3545,32ND AVE & BALBOA ST   ,37.77668,-122.49195
3546,32ND AVE & CALIFORNIA ST  ,37.783419,-122.492442
3547,32ND AVE & CALIFORNIA ST  ,37.783429,-122.492553
3548,32ND AVE & CLEMENT ST  ,37.781995,-122.492335
3549,32ND AVE & CLEMENT ST  ,37.781802,-122.492425
3550,32ND AVE & GEARY BLVD  ,37.779939,-122.492296
3551,33RD AVE & ANZA ST  ,37.777861,-122.493249
3552,33RD AVE & ANZA ST  ,37.777692,-122.493077
3553,33RD AVE & BALBOA ST  ,37.776032,-122.492973
3554,33RD AVE & BALBOA ST  ,37.775997,-122.493133
3555,33RD AVE & CLEMENT ST  ,37.781537,-122.493354
3556,33RD AVE & CLEMENT ST  ,37.781502,-122.493515
3557,33RD AVE & GEARY BLVD  ,37.779815,-122.493227
3558,33RD AVE & GEARY BLVD  ,37.779815,-122.493388
3559,33RD AVE & GEARY BLVD  ,37.779548,-122.493215
3560,33RD AVE & GEARY BLVD  ,37.779566,-122.493376
3561,36TH AVE & LINCOLN WAY  ,37.764557,-122.495372
3562,37TH AVE & LINCOLN WAY  ,37.76436,-122.496621
3563,39TH AVE & QUINTARA ST  ,37.747621,-122.497424
3564,39TH AVE & RIVERA ST  ,37.745962,-122.497308
3565,39TH AVE & RIVERA ST  ,37.74596,-122.49747
3566,42ND AVE & CLEMENT ST  ,37.781087,-122.502994
3567,43RD AVE & CLEMENT ST  ,37.781007,-122.504232
3568,43RD AVE & POINT LOBOS AVE  ,37.779784,-122.504139
3570,45TH AVE & BALBOA ST  ,37.775242,-122.505798
3571,45TH AVE & BALBOA ST  ,37.775206,-122.505958
3572,45TH AVE & CABRILLO ST  ,37.773573,-122.50567
3573,45TH AVE & CABRILLO ST  ,37.773538,-122.505831
3574,46TH AVE & IRVING ST  ,37.762375,-122.506143
3575,46TH AVE & IRVING ST  ,37.762206,-122.505971
3576,46TH AVE & JUDAH ST  ,37.760519,-122.506015
3577,46TH AVE & JUDAH ST  ,37.760395,-122.505901
3578,46TH AVE & KIRKHAM ST  ,37.758655,-122.505888
3579,46TH AVE & KIRKHAM ST  ,37.758485,-122.505716
3580,46TH AVE & LAWTON ST  ,37.756781,-122.505749
3581,46TH AVE & LAWTON ST  ,37.756612,-122.505577
3582,46TH AVE & LINCOLN WAY  ,37.764035,-122.50611
3583,46TH AVE & LINCOLN WAY  ,37.764053,-122.50627
3584,46TH AVE & MORAGA ST  ,37.754925,-122.505621
3585,46TH AVE & MORAGA ST  ,37.754756,-122.505449
3586,46TH AVE & NORIEGA ST  ,37.752829,-122.505322
3587,46TH AVE & NORIEGA ST  ,37.752837,-122.505482
3588,46TH AVE & ORTEGA ST  ,37.751187,-122.505366
3589,46TH AVE & ORTEGA ST  ,37.751017,-122.505194
3590,46TH AVE & PACHECO ST  ,37.749331,-122.505239
3591,46TH AVE & PACHECO ST  ,37.749161,-122.505067
3592,46TH AVE & QUINTARA ST  ,37.747457,-122.5051
3593,46TH AVE & QUINTARA ST  ,37.747288,-122.504928
3594,46TH AVE & RIVERA ST  ,37.745592,-122.504973
3595,46TH AVE & RIVERA ST  ,37.745423,-122.504801
3596,46TH AVE & SANTIAGO ST  ,37.743737,-122.504834
3597,46TH AVE & SANTIAGO ST  ,37.743567,-122.504662
3598,46TH AVE & TARAVAL ST  ,37.741854,-122.504706
3599,46TH AVE & TARAVAL ST  ,37.741685,-122.504534
3600,46TH AVE & ULLOA ST  ,37.739998,-122.504579
3601,46TH AVE & ULLOA ST  ,37.739829,-122.504407
3602,46TH AVE & VICENTE ST  ,37.738142,-122.50444
3603,46TH AVE & VICENTE ST  ,37.737973,-122.504268
3604,46TH AVE & WAWONA ST  ,37.736108,-122.504141
3606,47TH AVE & WAWONA ST  ,37.736018,-122.505366
3608,48TH AVE & POINT LOBOS AVE  ,37.779023,-122.509411
3611,CYRIL MAGNIN ST & MARKET ST  ,37.784162,-122.408175
3612,CYRIL MAGNIN ST & MARKET ST  ,37.784011,-122.40821
3613,46 ADDISON ST   ,37.737735,-122.431009
3614,164 ADDISON  ST   ,37.738172,-122.432807
3615,ADDISON ST & DIAMOND HEIGHTS BLVD,37.740037,-122.435716
3616,ADDISON  ST & DIGBY ST  ,37.740001,-122.433609
3617,ADDISON  ST & FARNUM ST  ,37.740189,-122.434216
3618,ADDISON  ST & FARNUM ST  ,37.740055,-122.434433
3619,ALANA WAY & EXECUTIVE PARK BLVD,37.70898,-122.39422
3621,ALEMANY BLVD & ARCH ST  ,37.71163,-122.4669
3622,ALEMANY BLVD & ARCH ST  ,37.711418,-122.46717
3628,ALEMANY BLVD & ST CHARLES AVE ,37.710359,-122.469458
3629,ALEMANY BLVD/ST MARY'S PARK BRIDGE,37.73229,-122.42059
3630,ALEMANY BLVD & VICTORIA ST  ,37.71183,-122.46507
3631,ALEMANY BLVD & VICTORIA ST  ,37.71164,-122.46492
3641,ARCH ST & ALEMANY BLVD  ,37.71166,-122.46711
3642,ARGUELLO BLVD & BALBOA ST  ,37.777075,-122.458645
3643,ARGUELLO BLVD & CALIFORNIA ST ,37.785596,-122.459093
3644,ARGUELLO BLVD & CALIFORNIA ST ,37.78556,-122.459254
3645,ARGUELLO BLVD & CLEMENT ST  ,37.783071,-122.45907
3647,ARGUELLO BLVD & EUCLID AVE  ,37.78374,-122.458956
3648,ARGUELLO BLVD & FULTON ST  ,37.774425,-122.458301
3649,ARGUELLO BLVD & GEARY BLVD  ,37.781429,-122.458955
3650,ARGUELLO BLVD & GEARY BLVD  ,37.781081,-122.45876
3651,ARGUELLO BLVD & TURK ST  ,37.777477,-122.458519
3652,ARKANSAS ST & 22ND ST  ,37.75745,-122.39804
3653,ARKANSAS ST & MADERA ST  ,37.75597,-122.39789
3656,ASHBURY ST & CLIFFORD TER,37.764281,-122.445946
3657,ASHBURY ST & CLIFFORD TER   ,37.764298,-122.446095
3659,ASHBURY ST & CLAYTON ST  ,37.762978,-122.446805
3661,ASHBURY ST & FREDERICK ST  ,37.767154,-122.446278
3662,ASHBURY ST & HAIGHT ST  ,37.769937,-122.446851
3663,ASHBURY ST & PIEDMONT ST  ,37.765298,-122.446072
3664,ASHBURY ST & PIEDMONT ST  ,37.765146,-122.445877
3665,ASHBURY ST & WALLER ST  ,37.769161,-122.446851
3666,ASHBURY ST & WALLER ST  ,37.76901,-122.446656
3667,ATHENS ST & AVALON AVE   ,37.72465,-122.4261
3668,ATHENS ST & BRAZIL AVE   ,37.72155,-122.42846
3669,ATHENS ST & EXCELSIOR AVE   ,37.72311,-122.42729
3670,AVENUE B & GATEVIEW AVE,37.82695,-122.377402
3673,AVENUE H & 4TH ST  ,37.821938,-122.367796
3674,AVENUE H & 6TH ST  ,37.823625,-122.36893
3675,AVENUE H & CALIFORNIA ST,37.819939,-122.366422
3680,AVALON AVE & LA GRANDE AVE  ,37.72474,-122.42422
3681,AVALON AVE & LA GRANDE AVE   ,37.72474,-122.42437
3682,AVALON AVE & PERU AVE  ,37.72508,-122.42342
3685,BACON ST & GIRARD ST  ,37.72744,-122.40451
3686,BACON ST & GIRARD ST  ,37.72732,-122.4047
3687,BACON ST & GOETTINGEN ST  ,37.72691,-122.40648
3688,BACON ST & GOETTINGEN ST  ,37.7268,-122.40667
3689,BEVERLY ST & GARFIELD ST  ,37.719728,-122.471739
3690,BERNAL HEIGHTS BLVD & BRADFORD ST,37.74183,-122.40978
3691,BERNAL HEIGHTS BLVD & POWHATTAN AVE,37.74151,-122.41067
3692,BLANKEN AVE & TUNNEL AVE   ,37.71202,-122.40068
3693,BEMIS ST & ADDISON  ST   ,37.737725,-122.429531
3694,BOSWORTH ST & ELK ST  ,37.734871,-122.44007
3695,BOSWORTH ST & DIAMOND ST  ,37.733595,-122.434011
3696,BOSWORTH ST & DIAMOND ST  ,37.733488,-122.43408
3697,BOSWORTH ST & ELK ST  ,37.735005,-122.440093
3698,BOSWORTH ST & LIPPARD AVE  ,37.733925,-122.435706
3699,BOSWORTH ST & LIPPARD AVE  ,37.733827,-122.43597
3700,BOSWORTH ST & MARSILY ST  ,37.733469,-122.42794
3701,BOSWORTH ST & MILTON ST  ,37.733487,-122.429326
3702,BOSWORTH ST & MILTON ST  ,37.733318,-122.42952
3703,BOSWORTH ST & MISSION ST  ,37.733719,-122.426702
3704,BOSWORTH ST & ROTTECK ST  ,37.733211,-122.431296
3705,LINCOLN BLVD & BOWLEY AVE  ,37.788465,-122.482617
3706,BOWLEY ST & LINCOLN BLVD  ,37.792222,-122.481186
3708,BRADFORD ST & BERNAL HEIGHTS BLVD,37.74201,-122.4094
3709,BRADFORD ST & BERNAL HEIGHTS BLVD,37.74286,-122.4094
3710,BRADFORD ST & ESMERALDA AVE  ,37.74306,-122.40932
3712,BURNETT AVE & CRESTLINE DR   ,37.749121,-122.444938
3713,BURNETT AVE & DAWNVIEW WAY  ,37.748077,-122.445087
3715,BROAD ST & CAPITOL AVE  ,37.713191,-122.458921
3716,BROAD ST & CAPITOL AVE  ,37.713152,-122.459159
3717,BROAD ST & ORIZABA AVE  ,37.713178,-122.462331
3718,BROAD ST & PLYMOUTH AVE  ,37.713222,-122.455927
3719,BROAD ST & PLYMOUTH AVE  ,37.713161,-122.45618
3721,BRIDGE VIEW DR & SCOTIA AVE   ,37.73184,-122.3994
3722,BRIDGE VIEW DR & TOPEKA AVE   ,37.7332,-122.39769
3723,BRYANT ST & 4TH ST   ,37.779474,-122.398068
3724,BRYANT ST & 5TH ST   ,37.77795,-122.39995
3725,BRYANT ST & 6TH ST   ,37.776157,-122.402231
3726,BRYANT ST & 7TH ST   ,37.77438,-122.40449
3727,BRYANT ST & 8TH ST   ,37.77233,-122.40708
3728,BRYANT ST & 9TH ST   ,37.77146,-122.40817
3730,BRYANT ST & 16TH ST  ,37.76549,-122.4104
3731,BRYANT ST & 16TH ST  ,37.7653,-122.41054
3732,BRYANT ST & 17TH ST  ,37.76422,-122.41028
3733,BRYANT ST & 17TH ST  ,37.76402,-122.41041
3734,BRYANT ST & 18TH ST  ,37.76187,-122.4102
3735,BRYANT ST & 18TH ST  ,37.76167,-122.41004
3736,BRYANT ST & 19TH ST  ,37.76058,-122.41008
3737,BRYANT ST & 19TH ST  ,37.76038,-122.40991
3738,BRYANT ST & 20TH ST  ,37.75933,-122.40993
3739,BRYANT ST & 20TH ST  ,37.75911,-122.40966
3740,BRYANT ST & 21ST ST  ,37.75751,-122.4095
3741,BRYANT ST & 21ST ST  ,37.7574,-122.40961
3742,BRYANT ST & 22ND ST  ,37.75621,-122.40942
3743,BRYANT ST & 22ND ST  ,37.75572,-122.40949
3744,BRYANT ST & 23RD ST  ,37.75431,-122.40919
3745,BRYANT ST & 23RD ST  ,37.75415,-122.40932
3746,BRYANT ST & 24TH ST  ,37.752907,-122.409086
3747,BRYANT ST & 24TH ST  ,37.752728,-122.409178
3748,BRYANT ST & 25TH ST  ,37.7513,-122.40907
3749,BRYANT ST & 25TH ST  ,37.75111,-122.40889
3750,BRYANT ST & 26TH ST  ,37.74969,-122.40891
3751,BRYANT ST & 26TH ST  ,37.74951,-122.40873
3752,BRYANT ST & ALAMEDA ST  ,37.76845,-122.41068
3754,BRYANT ST & DIVISION ST   ,37.76967,-122.41045
3756,BRYANT ST & MARIPOSA ST  ,37.76314,-122.41032
3757,BRYANT ST & MARIPOSA ST  ,37.76294,-122.41016
3758,BRAZIL AVE & ATHENS ST   ,37.72162,-122.42829
3759,BRAZIL AVE & ATHENS ST   ,37.72166,-122.42857
3760,BRAZIL AVE & MADRID ST   ,37.72314,-122.43151
3761,BRAZIL AVE & MISSION ST   ,37.724717,-122.434654
3762,BRAZIL AVE & MOSCOW ST   ,37.72122,-122.42748
3763,BRAZIL AVE & MOSCOW ST   ,37.72128,-122.42776
3764,BRAZIL AVE & MUNICH ST   ,37.7209,-122.42699
3765,BRAZIL AVE & NAPLES ST   ,37.72238,-122.4299
3766,BRAZIL AVE & PARIS ST   ,37.723958,-122.433085
3767,BRAZIL AVE & PRAGUE ST   ,37.72052,-122.42616
3768,228 BAY SHORE BLVD  ,37.74472,-122.40443
3771,BAY SHORE BLVD & ALEMANY BLVD ,37.737729,-122.406997
3772,BAY SHORE BLVD & ARLETA AVE   ,37.712235,-122.402614
3773,BAY SHORE BLVD & AUGUSTA ST  ,37.73425,-122.40558
3775,BAY SHORE BLVD & BOUTWELL ST  ,37.73488,-122.40588
3776,BAY SHORE BLVD & CAMPBELL AVE ,37.71481,-122.39936
3778,BAY SHORE BLVD & CORTLAND AVE ,37.73986,-122.40677
3779,BAY SHORE BLVD & CORTLAND AVE ,37.73946,-122.407122
3780,BAY SHORE BLVD & HESTER AVE   ,37.71497,-122.39898
3783,BAY SHORE BLVD & LELAND AVE   ,37.711138,-122.403783
3788,BAY SHORE BLVD & SILVER AVE  ,37.733213,-122.40472
3789,BAY SHORE BLVD & SILVER AVE  ,37.732963,-122.404789
3793,BAY SHORE BLVD & VISITACION AVE,37.71062,-122.40389
3794,BUCHANAN ST & BAY ST  ,37.80343,-122.43334
3797,90 BUCKINGHAM WAY  ,37.72598,-122.47686
3798,91 BUCKINGHAM WAY  ,37.72597,-122.47714
3799,170 BUCKINGHAM WAY  ,37.72595,-122.47881
3800,190 BUCKINGHAM WAY  ,37.72587,-122.47879
3801,280 BUCKINGHAM WAY  ,37.72691,-122.48004
3802,281 BUCKINGHAM WAY  ,37.72717,-122.48005
3803,BUCKINGHAM WAY & WINSTON DR   ,37.72803,-122.47913
3804,BUNKER RD & FIELD RD  ,37.83142,-122.52323
3805,BUNKER RD/MIWOK TRAIL,37.832584,-122.527246
3806,BUNKER RD/MIWOK TRAIL,37.832477,-122.5272
3807,BUNKER RD/RIFLE RANGE,37.83302,-122.50882
3808,BUNKER RD/RIFLE RANGE,37.83296,-122.50872
3809,BUNKER RD/STABLES,37.8318,-122.51495
3810,BUNKER RD/STABLES,37.83175,-122.51538
3812,BUSH ST & HYDE ST  ,37.78915,-122.41658
3813,BUSH ST & JONES ST  ,37.78944,-122.41387
3814,BUSH ST & LEAVENWORTH ST  ,37.7893,-122.41496
3815,BUSH ST & MONTGOMERY ST  ,37.790924,-122.402118
3818,BUENA VISTA AVE E & BUENA VISTA TER,37.76773,-122.44021
3819,BUENA VISTA TER & BUENA VISTA AVE E,37.76883,-122.43833
3820,BUENA VISTA TER & ROOSEVELT WAY,37.76685,-122.43815
3822,CALIFORNIA ST & 4TH AVE  ,37.785353,-122.462292
3823,CALIFORNIA ST & 4TH AVE  ,37.785178,-122.46257
3824,CALIFORNIA ST & 6TH AVE  ,37.785069,-122.464641
3825,CALIFORNIA ST & 6TH AVE  ,37.784902,-122.464709
3826,CALIFORNIA ST & 7TH AVE   ,37.784819,-122.465432
3827,CALIFORNIA ST & 8TH AVE  ,37.78463,-122.466825
3828,CALIFORNIA ST & 10TH AVE  ,37.784665,-122.469159
3830,CALIFORNIA ST & 10TH AVE  ,37.784551,-122.468963
3831,CALIFORNIA ST & 12TH AVE  ,37.784586,-122.470848
3832,CALIFORNIA ST & 12TH AVE  ,37.784454,-122.471103
3833,CALIFORNIA ST & 16TH AVE  ,37.784386,-122.475229
3834,CALIFORNIA ST & 16TH AVE  ,37.784253,-122.475501
3835,CALIFORNIA ST & 19TH AVE  ,37.784241,-122.478446
3836,CALIFORNIA ST & 19TH AVE  ,37.784109,-122.47871
3837,CALIFORNIA ST & 22ND AVE  ,37.784097,-122.481659
3838,CALIFORNIA ST & 22ND AVE  ,37.783941,-122.481893
3839,CALIFORNIA ST & 25TH AVE  ,37.78395,-122.48482
3840,CALIFORNIA ST & 25TH AVE  ,37.783808,-122.485286
3841,CALIFORNIA ST & 28TH AVE  ,37.783798,-122.488074
3842,CALIFORNIA ST & 28TH AVE  ,37.783658,-122.488456
3843,CALIFORNIA ST & 30TH AVE  ,37.783671,-122.490513
3844,CALIFORNIA ST & 30TH AVE  ,37.783578,-122.490087
3845,CALIFORNIA ST & ARGUELLO BLVD ,37.785703,-122.459288
3846,CALIFORNIA ST & ARGUELLO BLVD ,37.785659,-122.459036
3847,CALIFORNIA ST & BAKER ST  ,37.787738,-122.443634
3848,CALIFORNIA ST & BAKER ST  ,37.78762,-122.443384
3849,CALIFORNIA ST & BATTERY ST  ,37.793296,-122.399813
3851,CALIFORNIA ST & BATTERY ST  ,37.793144,-122.39987
3852,CALIFORNIA ST & CHERRY ST  ,37.786042,-122.456835
3853,CALIFORNIA ST & CHERRY ST  ,37.785974,-122.456329
3855,CALIFORNIA ST & DAVIS ST  ,37.793589,-122.397462
3857,CALIFORNIA ST & DAVIS ST  ,37.79342,-122.397749
3858,CALIFORNIA ST & DIVISADERO ST ,37.788087,-122.44087
3859,CALIFORNIA ST & DIVISADERO ST ,37.787954,-122.440721
3860,CALIFORNIA ST & DRUMM ST  ,37.793678,-122.396373
3861,CALIFORNIA ST & FILLMORE ST  ,37.788931,-122.434151
3862,CALIFORNIA ST & FILLMORE ST  ,37.788861,-122.433989
3863,CALIFORNIA ST & FRONT ST  ,37.793438,-122.398643
3864,CALIFORNIA ST & FRONT ST  ,37.79327,-122.39892
3865,CALIFORNIA ST & GRANT AVE   ,37.792504,-122.405958
3866,CALIFORNIA ST & GRANT AVE   ,37.792379,-122.405935
3867,CALIFORNIA ST & HYDE ST  ,37.791018,-122.41756
3868,CALIFORNIA ST & HYDE ST   ,37.790902,-122.417537
3869,CALIFORNIA ST & JONES ST   ,37.791472,-122.414121
3870,CALIFORNIA ST & JONES ST   ,37.791347,-122.414098
3871,CALIFORNIA ST & KEARNY ST  ,37.792718,-122.404273
3872,CALIFORNIA ST & KEARNY ST  ,37.792593,-122.40425
3873,CALIFORNIA ST & LARKIN ST  ,37.790866,-122.41889
3874,CALIFORNIA ST & LARKIN ST  ,37.7907,-122.41916
3875,CALIFORNIA ST & LAUREL ST  ,37.786923,-122.449957
3876,CALIFORNIA ST & LAUREL ST  ,37.786712,-122.45026
3877,CALIFORNIA ST & LEAVENWORTH ST,37.791285,-122.415611
3878,CALIFORNIA ST & LEAVENWORTH ST ,37.791133,-122.415749
3879,CALIFORNIA ST & MAPLE ST  ,37.786248,-122.455207
3880,CALIFORNIA ST & MASON ST  ,37.791872,-122.41098
3881,CALIFORNIA ST & MASON ST  ,37.791747,-122.410957
3882,CALIFORNIA ST & MONTGOMERY ST ,37.792762,-122.402908
3883,CALIFORNIA ST & MONTGOMERY ST ,37.792931,-122.402622
3884,CALIFORNIA ST & PIERCE ST  ,37.788518,-122.437484
3885,CALIFORNIA ST & PIERCE ST  ,37.788455,-122.436808
3886,CALIFORNIA ST & PARK PRESIDIO BLVD,37.784515,-122.47325
3887,CALIFORNIA ST & PARK PRESIDIO BLVD,37.784365,-122.472764
3888,CALIFORNIA ST & POLK ST  ,37.790661,-122.420541
3889,CALIFORNIA ST & POLK ST  ,37.790492,-122.420828
3890,CALIFORNIA ST & POWELL ST  ,37.792068,-122.40942
3891,CALIFORNIA ST & POWELL ST  ,37.791952,-122.40934
3892,CALIFORNIA ST & PRESIDIO AVE  ,37.787265,-122.446965
3893,CALIFORNIA ST & PRESIDIO AVE  ,37.787212,-122.446931
3894,CALIFORNIA ST & SANSOME ST  ,37.793145,-122.400982
3895,CALIFORNIA ST & SANSOME ST,37.792975,-122.401269
3896,CALIFORNIA ST & SPRUCE ST  ,37.786503,-122.453281
3897,CALIFORNIA ST & SPRUCE ST  ,37.786334,-122.453517
3899,CALIFORNIA ST & STOCKTON ST   ,37.792308,-122.407552
3900,CALIFORNIA ST & STOCKTON ST   ,37.792184,-122.407529
3901,CALIFORNIA ST & TAYLOR ST  ,37.791712,-122.412321
3902,CALIFORNIA ST & TAYLOR ST  ,37.791543,-122.412608
3904,CALIFORNIA ST & AVENUE C,37.818326,-122.370139
3905,CALIFORNIA ST & AVENUE D  ,37.818504,-122.369531
3909,CARL ST & COLE ST  ,37.765863,-122.449804
3911,CARL ST & COLE ST  ,37.765745,-122.450131
3912,CARL ST & HILLWAY AVE  ,37.765003,-122.456561
3913,CARL ST & HILLWAY AVE  ,37.764932,-122.456512
3914,CARL ST & STANYAN ST  ,37.765495,-122.45259
3915,CARL ST & STANYAN ST  ,37.765371,-122.452928
3920,CASHMERE ST & HUDSON AVE  ,37.73573,-122.38354
3921,CASHMERE ST & LA SALLE AVE  ,37.73585,-122.38695
3922,CASHMERE ST & WHITNEY YOUNG CIR,37.7366,-122.38588
3923,CABRILLO ST & 6TH AVE  ,37.775451,-122.463975
3924,CABRILLO ST & 47TH AVE  ,37.773421,-122.507767
3925,CABRILLO ST & 47TH AVE  ,37.773287,-122.507985
3927,CABRILLO ST & LA PLAYA ST,37.773527,-122.510002
3930,CESAR CHAVEZ ST & FLORIDA ST  ,37.74823,-122.40976
3931,CESAR CHAVEZ ST & FOLSOM ST  ,37.74834,-122.41398
3932,CESAR CHAVEZ ST & FOLSOM ST  ,37.74815,-122.41382
3934,CESAR CHAVEZ ST & HARRISON ST ,37.7482,-122.41163
3935,CESAR CHAVEZ ST & MISSION ST  ,37.748234,-122.418369
3936,CESAR CHAVEZ ST & SOUTH VAN NESS AVE,37.748305,-122.415756
3940,CHESTNUT ST & DIVISADERO ST  ,37.800051,-122.442746
3941,CHESTNUT ST & FILLMORE ST  ,37.800845,-122.436245
3942,CHESTNUT ST & FILLMORE ST  ,37.800738,-122.436371
3947,CHESTNUT ST & LAGUNA ST  ,37.801486,-122.431475
3948,CHESTNUT ST & LAGUNA ST  ,37.80137,-122.431406
3952,CHESTNUT ST & PIERCE ST  ,37.800506,-122.439352
3953,CHESTNUT ST & PIERCE ST  ,37.80031,-122.439616
3956,CHESTNUT ST & VAN NESS AVE  ,37.802333,-122.424871
3957,CHESTNUT ST & VAN NESS AVE  ,37.802199,-122.424894
3958,CHESTNUT ST & WEBSTER ST  ,37.801103,-122.434502
3959,CHESTNUT ST & WEBSTER ST  ,37.800951,-122.434697
3960,CHICAGO WAY & CORDOVA AVE   ,37.70887,-122.434222
3961,CHICAGO WAY & CORDOVA AVE   ,37.708968,-122.434336
3962,CHICAGO WAY & NAYLOR ST   ,37.709834,-122.432435
3963,CHICAGO WAY & NAYLOR ST   ,37.709628,-122.432504
3964,CHICAGO WAY & SOUTH HILL BLVD  ,37.710565,-122.431381
3965,CHENERY ST & 30TH ST  ,37.74202,-122.42575
3966,CHENERY ST & 30TH ST  ,37.74191,-122.42582
3967,CHENERY ST & CASTRO ST  ,37.7346,-122.43233
3968,CHENERY ST & FAIRMOUNT ST  ,37.7389,-122.42579
3969,CHENERY ST & MATEO ST   ,37.73646,-122.42894
3970,CHENERY ST & MATEO ST   ,37.73633,-122.429
3971,CHENERY ST & MIGUEL ST   ,37.73714,-122.42775
3972,CHENERY ST & MIGUEL ST   ,37.73711,-122.42792
3973,CHENERY ST & NATICK ST  ,37.73458,-122.43191
3974,CHENERY ST & RANDALL ST  ,37.739929,-122.425692
3975,CHENERY ST & RANDALL ST  ,37.739625,-122.425498
3976,CHENERY ST & ROANOKE ST   ,37.73563,-122.4302
3977,CHENERY ST & ROANOKE ST   ,37.73548,-122.43028
3981,CHUMASERO DR & FONT BLVD   ,37.715007,-122.473135
3984,CHURCH ST & 16TH ST  ,37.764621,-122.428722
3985,CHURCH ST & 16TH ST  ,37.764382,-122.428609
3987,CHURCH ST & 18TH ST  ,37.761467,-122.428416
3994,CHURCH ST & 22ND ST  ,37.754785,-122.427659
3995,CHURCH ST & 24TH ST  ,37.7518,-122.427497
3996,CHURCH ST & 24TH ST  ,37.751591,-122.42735
3997,CHURCH ST & 27TH ST  ,37.746985,-122.427073
3998,CHURCH ST & 27TH ST  ,37.746781,-122.426893
3999,CHURCH ST & 29TH ST  ,37.743587,-122.426585
4000,CHURCH ST & 30TH ST   ,37.742222,-122.426459
4002,CHURCH ST & CLIPPER ST  ,37.749388,-122.427289
4003,CHURCH ST & CLIPPER ST  ,37.749182,-122.427122
4004,CHURCH ST & DAY ST  ,37.742811,-122.426654
4005,CHURCH ST & DUBOCE AVE   ,37.769499,-122.429167
4006,CHURCH ST & DUBOCE AVE  ,37.769302,-122.429087
4009,CHURCH ST & MARKET ST  ,37.767777,-122.428881
4015,CLAY ST & DRUMM ST  ,37.795436,-122.396819
4016,CLAY ST & FRANKLIN ST  ,37.791907,-122.424463
4017,CLAY ST & FRONT ST  ,37.795116,-122.399101
4018,CLAY ST & GRANT AVE  ,37.794263,-122.405971
4019,CLAY ST & HYDE ST  ,37.792756,-122.417899
4020,CLAY ST & JONES ST  ,37.793173,-122.414616
4021,CLAY ST & KEARNY ST  ,37.794477,-122.404411
4022,CLAY ST & LARKIN ST  ,37.792526,-122.419589
4023,CLAY ST & LEAVENWORTH ST  ,37.792959,-122.416304
4024,CLAY ST & MASON ST  ,37.793653,-122.410823
4025,CLAY ST & MONTGOMERY ST  ,37.794682,-122.40277
4026,CLAY ST & POLK ST  ,37.792357,-122.42101
4027,CLAY ST & POWELL ST  ,37.793826,-122.409591
4028,CLAY ST & SANSOME ST  ,37.79484,-122.401543
4029,CLAY ST & STOCKTON ST  ,37.794082,-122.407561
4030,CLAY ST & TAYLOR ST  ,37.793363,-122.412744
4031,CLAY ST & VAN NESS AVE  ,37.792106,-122.422913
4032,CLARENDON AVE & CLARENDON WOODS S,37.75171,-122.45839
4033,CLARENDON AVE & GALEWOOD CIRCLE,37.753074,-122.455858
4035,CLARENDON AVE & OLYMPIA WAY  ,37.751628,-122.456178
4037,CLARENDON AVE & PANORAMA DR  ,37.75368,-122.455514
4039,CLEMENT ST & 2ND AVE  ,37.78309,-122.45982
4040,CLEMENT ST & 4TH AVE  ,37.78309,-122.46257
4041,CLEMENT ST & 4TH AVE  ,37.78299,-122.46195
4042,CLEMENT ST & 6TH AVE  ,37.783,-122.46479
4043,CLEMENT ST & 6TH AVE  ,37.782856,-122.464331
4044,CLEMENT ST & 8TH AVE  ,37.782798,-122.466158
4045,CLEMENT ST & 10TH AVE  ,37.7828,-122.469
4046,CLEMENT ST & 10TH AVE  ,37.7827,-122.46837
4047,CLEMENT ST & 12TH AVE  ,37.7827,-122.47116
4048,CLEMENT ST & 12TH AVE  ,37.78258,-122.47097
4069,CLEMENT ST & LEGION OF HONOR DR,37.781644,-122.494397
4070,CLAYTON ST & TWIN PEAKS BLVD  ,37.760863,-122.446485
4071,CLIPPER ST & DIAMOND HEIGHTS BLVD,37.74689,-122.44396
4072,CLIPPER ST & PORTOLA DR,37.7467,-122.445
4073,CLAYTON ST & CARL ST  ,37.766288,-122.447779
4074,CLAYTON ST & CARL ST  ,37.766154,-122.44794
4075,CLAYTON ST & CORBETT AVE   ,37.758793,-122.445935
4076,CLAYTON ST & CORBETT AVE  ,37.758668,-122.445866
4077,CLAYTON ST & CARMEL ST  ,37.760944,-122.446336
4078,CLAYTON ST & FREDERICK ST  ,37.76694,-122.447917
4079,CLAYTON ST & MARKET ST  ,37.758383,-122.444479
4080,CLAYTON ST & MARKET ST   ,37.758222,-122.444319
4081,CLAYTON ST & PARNASSUS AVE  ,37.765405,-122.447608
4082,CLAYTON ST & PARNASSUS AVE  ,37.765226,-122.447757
4087,COIT TOWER,37.80266,-122.40579
4088,COLE ST & 17TH ST  ,37.761711,-122.449212
4089,COLE ST & ALMA ST  ,37.763263,-122.449533
4090,COLE ST & ALMA ST  ,37.76313,-122.44938
4091,COLE ST & CARL ST  ,37.76594,-122.449911
4092,COLE ST & CARL ST  ,37.76556,-122.44996
4093,COLE ST & CARMEL ST  ,37.760926,-122.449052
4094,COLE ST & FREDERICK ST  ,37.76683,-122.4502
4095,COLE ST & HAIGHT ST  ,37.769456,-122.45061
4096,COLE ST & HAIGHT ST  ,37.769447,-122.450771
4097,COLE ST & PARNASSUS AVE  ,37.76477,-122.44971
4098,COLE ST & PARNASSUS AVE  ,37.76462,-122.44978
4099,COLE ST & WALLER ST  ,37.768528,-122.450427
4100,COLUMBUS AVE & BAY ST  ,37.80551,-122.41784
4101,COLUMBUS AVE & BROADWAY   ,37.798123,-122.406897
4102,COLUMBUS AVE & BROADWAY   ,37.797626,-122.406465
4103,COLUMBUS AVE & CHESTNUT ST   ,37.803794,-122.415136
4104,COLUMBUS AVE & CHESTNUT ST  ,37.80341,-122.414586
4105,COLUMBUS AVE & FILBERT ST   ,37.801188,-122.411605
4106,COLUMBUS AVE & FRANCISCO ST   ,37.804517,-122.416167
4107,COLUMBUS AVE & FRANCISCO ST  ,37.804205,-122.415973
4108,COLUMBUS AVE & GREEN ST   ,37.799386,-122.408723
4110,COLUMBUS AVE & JACKSON ST,37.79626,-122.40442
4111,COLUMBUS AVE & KEARNY ST   ,37.797319,-122.405742
4113,COLUMBUS AVE & LOMBARD ST  ,37.802687,-122.413531
4114,COLUMBUS AVE & LOMBARD ST  ,37.802598,-122.413646
4115,COLUMBUS AVE & MASON ST   ,37.802089,-122.41266
4116,COLUMBUS AVE & NORTH POINT ST ,37.80549,-122.417589
4117,COLUMBUS AVE & STOCKTON ST   ,37.79911,-122.408602
4118,COLUMBUS AVE & TAYLOR ST   ,37.803285,-122.414643
4119,COLUMBUS AVE & UNION ST  ,37.8005,-122.410356
4120,COLUMBUS AVE & UNION ST  ,37.800331,-122.410242
4121,COLUMBUS AVE & WASHINGTON ST   ,37.79591,-122.403682
4122,1095 CONNECTICUT ST,37.753902,-122.397341
4123,CONNECTICUT ST & 17TH ST  ,37.76498,-122.397661
4124,CONNECTICUT ST & 17TH ST  ,37.764749,-122.397785
4125,CONNECTICUT ST & 18TH ST  ,37.762614,-122.397569
4126,CONNECTICUT ST & 18TH ST  ,37.76243,-122.39741
4127,CONNECTICUT ST & 19TH ST  ,37.76115,-122.39733
4128,CONNECTICUT ST & 25TH ST  ,37.752563,-122.396402
4129,CONNECTICUT ST & 26TH ST  ,37.75143,-122.396345
4130,CONNECTICUT ST & 26TH ST  ,37.751269,-122.396517
4131,CONNECTICUT ST & CESAR CHAVEZ ST ,37.750002,-122.39622
4132,CONNECTICUT ST & CESAR CHAVEZ ST ,37.749868,-122.396381
4133,CONZELMAN RD/KIRBY COVE,37.82952,-122.48402
4134,CONZELMAN RD/KIRBY COVE,37.82944,-122.48354
4135,CONZELMAN RD/GGNRA ENTRANCE SIGN,37.83309,-122.48355
4137,CORDOVA AVE & PRAGUE ST  ,37.710182,-122.434874
4138,CORDOVA AVE & WINDING WAY  ,37.709638,-122.434828
4139,CORDOVA AVE & WINDING WAY  ,37.709504,-122.434588
4142,CORTLAND AVE & ANDOVER ST  ,37.73909,-122.41639
4143,CORTLAND AVE & ANDOVER ST  ,37.73904,-122.41658
4145,CORTLAND AVE & BOCANA ST  ,37.7393,-122.41846
4146,CORTLAND AVE & BOCANA ST  ,37.73931,-122.41872
4147,CORTLAND AVE & BRADFORD ST   ,37.739791,-122.409746
4148,CORTLAND AVE & BAYSHORE BLVD ,37.739567,-122.407031
4149,CORTLAND AVE & ELSIE ST   ,37.73992,-122.41997
4150,CORTLAND AVE & ELSIE ST   ,37.7397,-122.41969
4151,CORTLAND AVE & ELLSWORTH ST  ,37.73892,-122.41455
4152,CORTLAND AVE & ELLSWORTH ST  ,37.738829,-122.414615
4153,CORTLAND AVE & FOLSOM ST  ,37.739,-122.41366
4154,CORTLAND AVE & FOLSOM ST  ,37.73892,-122.41343
4155,CORTLAND AVE & HILTON ST  ,37.739692,-122.40781
4156,CORTLAND AVE & MISSION ST   ,37.74101,-122.42267
4157,CORTLAND AVE & MISSION ST   ,37.74085,-122.42251
4158,CORTLAND AVE & PRENTISS ST  ,37.73978,-122.41199
4159,CORTLAND AVE & PRENTISS ST  ,37.73957,-122.41211
4160,CORTLAND AVE & PROSPECT AVE   ,37.740294,-122.420904
4161,CORTLAND AVE & PROSPECT AVE   ,37.7402,-122.42093
4162,210 CORBETT AVE   ,37.7618,-122.442841
4163,211 CORBETT AVE   ,37.761648,-122.442944
4164,320 CORBETT AVE  ,37.759926,-122.445327
4165,341 CORBETT AVE  ,37.759908,-122.445075
4166,539 CORBETT AVE   ,37.757499,-122.444147
4167,795 CORBETT AVE,37.754118,-122.443013
4168,800 CORBETT AVE,37.75399,-122.443
4169,925 CORBETT AVE   ,37.752083,-122.443414
4170,956 CORBETT AVE   ,37.751682,-122.443712
4171,CORBETT AVE & CLAYTON ST   ,37.75894,-122.44614
4172,CORBETT AVE & CLAYTON ST  ,37.758659,-122.4459
4173,CORBETT AVE & CUESTA CT,37.75085,-122.44396
4174,CORBETT AVE & DANVERS ST   ,37.761202,-122.444044
4175,CORBETT AVE & DANVERS ST   ,37.761327,-122.444078
4176,CORBETT AVE & DOUGLASS ST  ,37.76208,-122.43962
4177,CORBETT AVE & GRAYSTONE TER ,37.75641,-122.44328
4178,CORBETT AVE & GRAYSTONE TER  ,37.756446,-122.443425
4179,CORBETT AVE & HATTIE ST  ,37.761711,-122.441122
4180,CORBETT AVE & HATTIE ST  ,37.76161,-122.44112
4181,CORBETT AVE & HOPKINS AVE   ,37.752869,-122.443815
4182,CORBETT AVE & IRON ALY   ,37.75783,-122.444743
4183,CORBETT AVE & MARS ST,37.760542,-122.44425
4184,CORBETT AVE & MARS ST,37.76048,-122.444479
4185,CORBETT AVE & ORD ST  ,37.761898,-122.440216
4186,CORBETT AVE & ROMAIN ST   ,37.755483,-122.442795
4187,CORBETT AVE & ROMAIN ST   ,37.755349,-122.44283
4188,CRESCENT AVE & AGNON AVE  ,37.735074,-122.421822
4189,CRESCENT AVE & ANDOVER ST  ,37.734966,-122.416725
4190,CRESCENT AVE & ANDOVER ST  ,37.734832,-122.416942
4191,CRESCENT AVE & ARNOLD AVE  ,37.734966,-122.419726
4192,CRESCENT AVE & COLLEGE AVE  ,37.735253,-122.424056
4195,CRESCENT AVE & FOLSOM ST  ,37.734804,-122.413586
4196,CRESCENT AVE & FOLSOM ST  ,37.73467,-122.413804
4197,CRESCENT AVE & LEESE ST  ,37.735244,-122.422567
4198,CRESCENT AVE & MISSION ST  ,37.735423,-122.424457
4199,CRESCENT AVE & MURRAY ST  ,37.735136,-122.420127
4200,CRESCENT AVE & PORTER ST  ,37.734895,-122.418214
4201,CRESCENT AVE & PUTNAM ST   ,37.735009,-122.411169
4202,CRESCENT AVE & PUTNAM ST  ,37.734911,-122.411283
4203,CRESCENT AVE & ROSCOE ST  ,37.735055,-122.418626
4204,CARMEL ST & BELVEDERE ST  ,37.76092,-122.447631
4205,CARMEL ST & TWIN PEAKS BLVD,37.760935,-122.446634
4207,CRESPI DR & VARELA AVE,37.7201,-122.47594
4209,40 CRESTLINE DR,37.750388,-122.446577
4210,74 CRESTLINE DR  ,37.751762,-122.446198
4211,FULTON ST & 33RD AVE  ,37.77223,-122.49318
4212,FULTON ST & 33RD AVE  ,37.7721,-122.49288
4213,FULTON ST & 36TH AVE  ,37.77208,-122.49634
4215,FULTON ST & 37TH AVE  ,37.77192,-122.49679
4218,FULTON ST & 40TH AVE  ,37.77179,-122.49991
4221,FULTON ST & 46TH AVE  ,37.77159,-122.50704
4222,FULTON ST & 46TH AVE  ,37.77148,-122.50631
4223,FULTON ST & ARGUELLO BLVD  ,37.774354,-122.458416
4224,FULTON ST & ARGUELLO BLVD  ,37.774282,-122.458003
4225,FULTON ST & CLAYTON ST  ,37.775407,-122.449774
4226,FULTON ST & CLAYTON ST  ,37.77537,-122.44929
4227,FULTON ST & GREAT HWY  ,37.771421,-122.510792
4228,FULTON ST & LA PLAYA ST  ,37.77134,-122.50939
4229,FULTON ST & MASONIC AVE  ,37.775844,-122.446404
4230,FULTON ST & MASONIC AVE  ,37.775773,-122.446289
4231,FULTON ST & PARK PRESIDIO BLVD,37.77319,-122.47218
4232,FULTON ST & PARK PRESIDIO BLVD,37.773067,-122.471699
4233,FULTON ST & PARKER AVE  ,37.775014,-122.452868
4234,FULTON ST & SHRADER ST  ,37.77499,-122.45238
4235,FULTON ST & STANYAN ST,37.774756,-122.454519
4236,FULTON ST & STANYAN STW,37.774773,-122.454737
4238,FOWLER AVE & PORTOLA DR   ,37.744356,-122.453233
4242,GOLDEN GATE AVE & POLK ST  ,37.78123,-122.41833
4243,GOLDEN GATE AVE & VAN NESS AVE,37.78095,-122.42066
4245,GARFIELD ST & BEVERLY ST  ,37.719719,-122.471533
4246,GARFIELD ST & BRIGHT ST  ,37.719988,-122.463459
4247,GARFIELD ST & BRIGHT ST  ,37.719791,-122.463642
4248,GARFIELD ST & BYXBEE ST  ,37.719737,-122.469735
4253,GARFIELD ST & VERNON ST  ,37.719746,-122.467937
4254,GARFIELD ST & VICTORIA ST  ,37.719613,-122.465452
4255,GEARY BLVD & 3RD AVE  ,37.781277,-122.460938
4256,GEARY BLVD & 3RD AVE  ,37.781045,-122.461156
4257,GEARY BLVD & 6TH AVE  ,37.781134,-122.464159
4258,GEARY BLVD & 6TH AVE  ,37.780902,-122.464377
4259,GEARY BLVD & 9TH AVE  ,37.780982,-122.467644
4260,GEARY BLVD & 9TH AVE  ,37.780777,-122.467323
4261,GEARY BLVD & 12TH AVE  ,37.780839,-122.470601
4262,GEARY BLVD & 12TH AVE  ,37.780607,-122.470819
4263,GEARY BLVD & 17TH AVE  ,37.780597,-122.476045
4264,GEARY BLVD & 17TH AVE  ,37.780365,-122.476263
4265,GEARY BLVD & 20TH AVE  ,37.780453,-122.479266
4266,GEARY BLVD & 20TH AVE  ,37.780221,-122.479484
4267,GEARY BLVD & 22ND AVE  ,37.780346,-122.481398
4268,GEARY BLVD & 23RD AVE  ,37.780078,-122.482693
4269,GEARY BLVD & 25TH AVE  ,37.78022,-122.48461
4270,GEARY BLVD & 25TH AVE  ,37.779979,-122.484825
4271,GEARY BLVD & 28TH AVE  ,37.780005,-122.487806
4272,GEARY BLVD & 28TH AVE  ,37.779862,-122.488046
4273,GEARY BLVD & 30TH AVE  ,37.779959,-122.489972
4274,GEARY BLVD & 30TH AVE  ,37.779727,-122.49019
4275,GEARY BLVD & 32ND AVE  ,37.779611,-122.491943
4277,GEARY BLVD & 33RD AVE  ,37.779735,-122.493112
4278,GEARY BLVD & 33RD AVE  ,37.779798,-122.493445
4279,GEARY BLVD & 33RD AVE  ,37.779574,-122.493399
4280,GEARY BLVD & 36TH AVE  ,37.779671,-122.496402
4281,GEARY BLVD & 36TH AVE  ,37.779439,-122.49662
4282,GEARY BLVD & 39TH AVE  ,37.779473,-122.500677
4283,GEARY BLVD & 39TH AVE  ,37.779286,-122.499829
4285,GEARY BLVD & 42ND AVE  ,37.779151,-122.502775
4286,GEARY BLVD & 45TH AVE  ,37.779043,-122.506259
4288,GEARY BLVD & ARGUELLO BLVD  ,37.781153,-122.458692
4289,GEARY BLVD & BAKER ST  ,37.782973,-122.442965
4290,GEARY BLVD & COLLINS ST  ,37.782242,-122.449992
4291,GEARY BLVD & COLLINS ST  ,37.782028,-122.449911
4292,GEARY BLVD & COMMONWEALTH ST  ,37.781528,-122.455677
4293,GEARY BLVD & DIVISADERO ST  ,37.783428,-122.439366
4294,GEARY BLVD & DIVISADERO ST  ,37.783178,-122.439572
4295,GEARY BLVD & FILLMORE ST  ,37.784391,-122.43305
4296,GEARY BLVD & FILLMORE ST   ,37.784257,-122.433313
4297,GEARY BLVD & FRANKLIN ST  ,37.78557,-122.42289
4298,GEARY BLVD & GOUGH ST  ,37.785434,-122.425082
4299,GEARY BLVD & HYDE ST  ,37.786351,-122.416611
4300,GEARY BLVD & JONES ST  ,37.786769,-122.413332
4301,GEARY BLVD & KEARNY ST  ,37.787997,-122.403656
4302,GEARY BLVD & LARKIN ST  ,37.786137,-122.41825
4303,GEARY BLVD & LEAVENWORTH ST  ,37.786556,-122.414971
4304,GEARY BLVD & LAGUNA ST  ,37.785033,-122.427811
4305,GEARY BLVD & LAGUNA ST  ,37.784854,-122.428155
4307,CASTRO ST & 14TH ST  ,37.76761,-122.43558
4308,CASTRO ST & 14TH ST  ,37.76742,-122.43571
4309,CASTRO ST & 15TH ST  ,37.76583,-122.43557
4310,CASTRO ST & 15TH ST  ,37.76561,-122.43538
4311,CASTRO ST & 16TH ST  ,37.764164,-122.435254
4312,CASTRO ST & 16TH ST  ,37.76427,-122.43544
4313,CASTRO ST & 17TH ST  ,37.76237,-122.43508
4314,CASTRO ST & 18TH ST  ,37.760836,-122.434934
4315,CASTRO ST & 18TH ST  ,37.760863,-122.435048
4316,CASTRO ST & 19TH ST  ,37.75939,-122.43491
4317,CASTRO ST & 19TH ST  ,37.75916,-122.43479
4318,CASTRO ST & 20TH ST  ,37.75778,-122.43477
4319,CASTRO ST & 20TH ST  ,37.757632,-122.434636
4320,CASTRO ST & 21ST ST   ,37.755955,-122.434465
4321,CASTRO ST & 21ST ST   ,37.756098,-122.434625
4322,CASTRO ST & 22ND ST  ,37.75464,-122.43448
4323,CASTRO ST & 22ND ST  ,37.75441,-122.43431
4324,CASTRO ST & 23RD ST   ,37.752779,-122.434156
4325,CASTRO ST & 23RD ST   ,37.752895,-122.434316
4326,CASTRO ST & 24TH ST  ,37.7512,-122.43401
4327,CASTRO ST & 24TH ST  ,37.751315,-122.43411
4328,CASTRO ST & 25TH ST  ,37.74981,-122.43404
4329,CASTRO ST & 25TH ST  ,37.7496,-122.43383
4330,CASTRO ST & DUBOCE AVE  ,37.76918,-122.43596
4331,CASTRO ST & DUBOCE AVE  ,37.76895,-122.43571
4332,CASTRO ST & ELIZABETH ST   ,37.751886,-122.434053
4333,CASTRO ST & ELIZABETH ST   ,37.752083,-122.434248
4334,CASTRO ST & MARKET ST  ,37.762397,-122.435266
4335,CITY VIEW WAY & KNOLLVIEW WAY ,37.748898,-122.451377
4336,CURTIS ST & PRAGUE ST   ,37.710209,-122.437955
4337,CARGO WAY & 3RD ST  ,37.74606,-122.38695
4338,CARGO WAY & 3RD ST  ,37.74577,-122.38665
4341,DALY CITY BART STATION,37.705764,-122.469273
4342,14 DAKOTA ST  ,37.75376,-122.39576
4343,101 DAKOTA ST   ,37.75374,-122.39565
4345,DAKOTA ST & 25TH ST  ,37.75268,-122.39468
4346,DAVIS ST & CALIFORNIA ST  ,37.79363,-122.3977
4347,DAVIS ST & PINE ST   ,37.792608,-122.397532
4350,DE HARO ST & 16TH ST  ,37.766056,-122.40163
4351,DE HARO ST & 17TH ST  ,37.764762,-122.401516
4352,DE HARO ST & 18TH ST  ,37.76221,-122.401243
4353,DE HARO ST & 19TH ST  ,37.760934,-122.401117
4354,DE HARO ST & 20TH ST  ,37.759667,-122.401026
4355,DE HARO ST & 22ND ST  ,37.757437,-122.400822
4356,DE HARO ST & 23RD ST  ,37.754885,-122.400571
4357,DE HARO ST & MARIPOSA ST  ,37.763504,-122.401368
4358,DE HARO ST & SOUTHERN HEIGHTS AVE,37.758017,-122.400867
4359,5157 DIAMOND HEIGHTS BLVD   ,37.74693,-122.4402
4360,DIAMOND HEIGHTS BLVD & ADDISON ST,37.740198,-122.435762
4361,DIAMOND HEIGHTS BLVD & BERKELEY,37.73867,-122.43668
4362,DIAMOND HEIGHTS BLVD & BERKELEY WAY,37.7386,-122.4369
4363,DIAMOND HEIGHTS BLVD & DIAMOND ST,37.74185,-122.43566
4364,DIAMOND HEIGHTS BLVD & DIAMOND ST,37.74159,-122.43574
4366,DIAMOND HEIGHTS BLVD & DUNCAN ST ,37.745239,-122.439852
4367,DIAMOND HEIGHTS BLVD & GOLD MINE DR,37.74363,-122.43751
4368,DIAMOND HEIGHTS BLVD & GOLD MINE DR,37.74029,-122.43588
4369,DIAMOND HEIGHTS BLVD & GOLD MINE DR,37.74359,-122.43786
4370,DIAMOND ST & 24TH ST  ,37.75126,-122.43638
4371,DIAMOND ST & 24TH ST  ,37.751075,-122.436219
4372,DIAMOND ST & 25TH ST  ,37.74965,-122.43621
4373,DIAMOND ST & 25TH ST  ,37.749486,-122.436059
4374,DIAMOND ST & 26TH ST  ,37.747889,-122.43591
4375,DIAMOND ST & 26TH ST  ,37.747853,-122.43607
4376,DIAMOND ST & 27TH ST  ,37.746292,-122.435761
4377,DIAMOND ST & 27TH ST  ,37.746256,-122.435922
4378,DIAMOND ST & 28TH ST  ,37.744686,-122.435601
4379,DIAMOND ST & 28TH ST  ,37.74465,-122.435762
4380,DIAMOND ST & 29TH ST  ,37.743249,-122.435659
4381,DIAMOND ST & 29TH ST  ,37.74308,-122.435487
4382,DIAMOND ST & ARBOR ST   ,37.738681,-122.434468
4383,DIAMOND ST & ARBOR ST   ,37.738262,-122.434674
4384,DIAMOND ST & CESAR CHAVEZ ST  ,37.747104,-122.435841
4385,DIAMOND ST & CESAR CHAVEZ ST  ,37.747068,-122.43599
4386,DIAMOND ST & BOSWORTH ST  ,37.733506,-122.434148
4387,DIAMOND ST & BOSWORTH ST  ,37.733452,-122.434217
4388,DIAMOND ST & CHENERY ST  ,37.73446,-122.433839
4389,DIAMOND ST & CHENERY ST  ,37.734469,-122.433953
4390,DIAMOND ST & CLIPPER ST  ,37.748853,-122.436162
4391,DIAMOND ST & CLIPPER ST  ,37.748683,-122.43599
4392,DIAMOND ST & CONRAD ST  ,37.7383,-122.4363
4393,DIAMOND ST & CONRAD ST  ,37.73841,-122.43593
4394,DIAMOND ST & DIAMOND HEIGHTS BLVD,37.741599,-122.43535
4395,DIAMOND ST & DIAMOND HEIGHTS BLVD,37.73822,-122.43726
4397,DIAMOND ST & DIAMOND HEIGHTS BLVD,37.74192,-122.435476
4398,DIAMOND ST & DUNCAN ST  ,37.745641,-122.435864
4399,DIAMOND ST & DUNCAN ST  ,37.745471,-122.435693
4400,DIAMOND ST & MOFFITT ST   ,37.7388,-122.43463
4401,DIAMOND ST & MOFFITT ST  ,37.73889,-122.4346
4402,DIAMOND ST & SURREY ST  ,37.73623,-122.43444
4403,DIAMOND ST & SURREY ST  ,37.73608,-122.43433
4404,DIAMOND ST & SUSSEX ST   ,37.737342,-122.434617
4405,DIAMOND ST & SUSSEX ST  ,37.73731,-122.43475
4406,DIVISADERO ST & BAY ST  ,37.801907,-122.443319
4407,DIVISADERO ST & BEACH ST  ,37.803772,-122.443697
4408,DIVISADERO ST & BUSH ST  ,37.786283,-122.439996
4409,DIVISADERO ST & CALIFORNIA ST ,37.788184,-122.440385
4410,DIVISADERO ST & CALIFORNIA ST ,37.787988,-122.4405
4411,DIVISADERO ST & CHESTNUT ST  ,37.79998,-122.442861
4412,DIVISADERO ST & CLAY ST  ,37.789977,-122.440741
4413,DIVISADERO ST & CLAY ST  ,37.78997,-122.44089
4414,DIVISADERO ST & EDDY ST  ,37.780591,-122.438942
4415,DIVISADERO ST & EDDY ST  ,37.780591,-122.438942
4418,DIVISADERO ST & FRANCISCO ST  ,37.80097,-122.443136
4421,DIVISADERO ST & GEARY BLVD  ,37.783375,-122.439412
4422,DIVISADERO ST & GEARY BLVD  ,37.78316,-122.439526
4423,DIVISADERO ST & HAIGHT ST  ,37.771329,-122.436983
4424,DIVISADERO ST & HAIGHT ST  ,37.77105,-122.4371
4425,DIVISADERO ST & HAYES ST  ,37.775059,-122.437739
4426,DIVISADERO ST & HAYES ST  ,37.774889,-122.437865
4427,DIVISADERO ST & JACKSON ST  ,37.79154,-122.44108
4428,DIVISADERO ST & MCALLISTER ST ,37.77786,-122.4383
4429,DIVISADERO ST & MCALLISTER ST ,37.777682,-122.438415
4430,DIVISADERO ST & NORTH POINT ST,37.802844,-122.443514
4431,DIVISADERO ST & OAK ST  ,37.773185,-122.43735
4432,DIVISADERO ST & OAK ST  ,37.773051,-122.437487
4433,DIVISADERO ST & PINE ST  ,37.786997,-122.440317
4434,DIVISADERO ST & SUTTER ST  ,37.785338,-122.439813
4435,DIVISADERO ST & SUTTER ST  ,37.78515,-122.439939
4436,DIVISION ST & BRYANT ST  ,37.76934,-122.41074
4437,DIVISION ST & RHODE ISLAND ST ,37.76976,-122.403152
4438,DIVISION ST & TOWNSEND ST  ,37.769894,-122.403301
4439,DELTA ST & TIOGA AVE   ,37.71729,-122.40773
4440,DONAHUE ST & INNES AVE   ,37.729002,-122.369913
4443,DOUGLASS ST & 24TH ST  ,37.75112,-122.43854
4444,DOUGLASS ST & ALVARADO ST  ,37.75352,-122.43875
4445,DRUMM ST & CALIFORNIA ST  ,37.79398,-122.39635
4447,DUBOCE AVE & CHURCH ST  ,37.769472,-122.429408
4448,DUBOCE AVE & CHURCH ST  ,37.769409,-122.4294
4453,DUNCAN ST & AMBER DR,37.7452,-122.44141
4454,DUNCAN ST & CAMEO WAY ,37.74519,-122.44304
4455,DUNCAN ST & DIAMOND HEIGHTS BLVD ,37.74526,-122.44029
4456,EARL ST & KIRKWOOD AVE   ,37.728779,-122.37313
4472,EDDY ST & BUCHANAN ST  ,37.781919,-122.428946
4473,EDDY ST & BUCHANAN ST  ,37.781767,-122.429141
4474,EDDY ST & DIVISADERO ST  ,37.780546,-122.438759
4475,EDDY ST & FILLMORE ST  ,37.7815,-122.432236
4476,EDDY ST & FILLMORE ST  ,37.781348,-122.432431
4477,EDDY ST & GOUGH ST  ,37.782516,-122.42427
4478,EDDY ST & GOUGH ST  ,37.7824,-122.424201
4479,EDDY ST & HYDE ST  ,37.783478,-122.415718
4480,EDDY ST & JONES ST  ,37.783887,-122.412428
4481,EDDY ST & LARKIN ST  ,37.783353,-122.41769
4482,EDDY ST & LARKIN ST  ,37.783273,-122.417357
4483,EDDY ST & LEAVENWORTH ST  ,37.783682,-122.414079
4484,EDDY ST & LAGUNA ST  ,37.782133,-122.427296
4485,EDDY ST & LAGUNA ST  ,37.782017,-122.427227
4486,EDDY ST & MASON ST  ,37.78427,-122.409402
4487,EDDY ST & PIERCE ST  ,37.781081,-122.435515
4488,EDDY ST & PIERCE ST  ,37.780929,-122.435709
4489,EDDY ST & POLK ST  ,37.783184,-122.419042
4490,EDDY ST & POLK ST  ,37.783059,-122.419019
4491,EDDY ST & SCOTT ST  ,37.780876,-122.437165
4492,EDDY ST & SCOTT ST  ,37.780724,-122.43736
4493,EDDY ST & TAYLOR ST  ,37.784101,-122.410789
4494,EDDY ST & VAN NESS AVE  ,37.782988,-122.420613
4495,EDDY ST & VAN NESS AVE  ,37.782863,-122.42059
4496,ELLIS ST & JONES ST  ,37.78488,-122.41315
4497,ELLIS ST & LEAVENWORTH ST  ,37.78471,-122.41427
4499,ELLIS ST & TAYLOR ST  ,37.78509,-122.41145
4501,THE EMBARCADERO & BAY ST  ,37.806945,-122.406278
4502,THE EMBARCADERO & BAY ST  ,37.806629,-122.40603
4503,THE EMBARCADERO & BROADWAY,37.799552,-122.397869
4504,THE EMBARCADERO & BROADWAY,37.798901,-122.397434
4506,THE EMBARCADERO & BRANNAN ST   ,37.784359,-122.388138
4508,THE EMBARCADERO & FOLSOM ST  ,37.791079,-122.390104
4509,THE EMBARCADERO & FOLSOM ST   ,37.790481,-122.389692
4510,THE EMBARCADERO & FOLSOM ST  ,37.790749,-122.389841
4511,THE EMBARCADERO & FOLSOM ST  ,37.790561,-122.389898
4513,THE EMBARCADERO/FERRY BUILDING,37.795105,-122.393861
4515,THE EMBARCADERO & GREENWICH ST,37.803263,-122.401113
4516,THE EMBARCADERO & GREENWICH ST,37.80296,-122.401029
4517,THE EMBARCADERO & GREEN ST  ,37.801264,-122.399369
4518,THE EMBARCADERO & GREEN ST  ,37.800605,-122.39892
4519,THE EMBARCADERO & HOWARD ST  ,37.792686,-122.391146
4520,THE EMBARCADERO & HOWARD ST  ,37.792159,-122.391066
4529,THE EMBARCADERO & SANSOME ST  ,37.805022,-122.403314
4530,THE EMBARCADERO & STOCKTON ST ,37.808351,-122.410287
4531,THE EMBARCADERO & TOWNSEND ST  ,37.7836,-122.38832
4532,THE EMBARCADERO & WASHINGTON ST,37.797085,-122.39567
4534,THE EMBARCADERO & WASHINGTON ST,37.796355,-122.395181
4535,EUREKA ST & 18TH ST  ,37.760631,-122.438188
4536,EUREKA ST & 19TH ST  ,37.759034,-122.438039
4537,EUREKA ST & 20TH ST  ,37.75741,-122.437879
4538,EUREKA ST & 21ST ST  ,37.755973,-122.437902
4539,EUREKA ST & 21ST ST  ,37.755813,-122.43773
4540,EUREKA ST & 22ND ST  ,37.754367,-122.437742
4541,EUREKA ST & 22ND ST  ,37.754215,-122.43757
4542,EUREKA ST & 23RD ST  ,37.75279,-122.43759
4543,EUREKA ST & MARKET ST  ,37.761594,-122.43828
4544,EUCALYPTUS DR & 19TH AVE  ,37.731157,-122.474744
4545,EUCALYPTUS DR & 19TH AVE  ,37.731041,-122.474538
4546,EUCALYPTUS DR & JUNIPERO SERRA BLVD,37.730988,-122.472442
4547,EVANS AVE & 3RD ST   ,37.742628,-122.387862
4548,EVANS AVE & CESAR CHAVEZ ST  ,37.749066,-122.396886
4549,EVANS AVE & CESAR CHAVEZ ST  ,37.74903,-122.397069
4550,EVANS AVE & KEITH ST   ,37.73877,-122.380797
4551,EVANS AVE & KEITH ST   ,37.738761,-122.381084
4552,EVANS AVE & MIDDLE POINT RD   ,37.737672,-122.379252
4553,EVANS AVE & MENDELL ST   ,37.740699,-122.384507
4555,EVANS AVE & NEWHALL ST,37.741949,-122.386408
4556,EVANS AVE & NAPOLEON ST   ,37.747263,-122.395879
4557,EVANS AVE & NAPOLEON ST   ,37.747343,-122.396257
4558,EVANS AVE & NEWHALL ST  ,37.740003,-122.382973
4559,EVANS AVE & PHELPS ST   ,37.742994,-122.388309
4560,EVANS AVE & PHELPS ST   ,37.742977,-122.388595
4561,EVANS AVE & QUINT ST   ,37.744245,-122.390531
4562,EVANS AVE & SELBY ST   ,37.745968,-122.39384
4564,EVANS AVE/OPPOSITE US POST OFFICE,37.739717,-122.382813
4565,909 ELLSWORTH ST  ,37.73284,-122.41679
4566,945 ELLSWORTH ST  ,37.73281,-122.41776
4567,989 ELLSWORTH ST   ,37.73262,-122.41893
4568,ELLSWORTH ST & CRESCENT AVE  ,37.73471,-122.41491
4571,EXCELSIOR AVE & MADRID ST   ,37.72475,-122.43059
4572,EXCELSIOR AVE & MISSION ST   ,37.726162,-122.433577
4573,EXCELSIOR AVE & NAPLES ST   ,37.72399,-122.42899
4574,EXCELSIOR AVE & PARIS ST   ,37.72552,-122.43219
4575,50 THOMAS MELLON DR,37.709831,-122.392893
4576,EXECUTIVE PARK BLVD & BLANKEN AVE,37.71088,-122.39476
4579,FARNUM ST & MOFFITT ST  ,37.738333,-122.434067
4580,FELL ST & GOUGH ST  ,37.77597,-122.42302
4581,FELTON ST & AMHERST ST  ,37.72702,-122.41634
4582,FELTON ST & AMHERST ST  ,37.72688,-122.41653
4583,FELTON ST & CAMBRIDGE ST  ,37.7264,-122.41874
4584,FELTON ST & CAMBRIDGE ST  ,37.72637,-122.41851
4587,FELTON ST & HARVARD ST  ,37.72597,-122.42028
4588,FELTON ST & HARVARD ST  ,37.72586,-122.42046
4589,FELTON ST & MADISON ST  ,37.725598,-122.422043
4590,FELTON ST & MADISON ST  ,37.72543,-122.42211
4593,FELTON ST & PERU AVE  ,37.7252,-122.42324
4596,FELTON ST & UNIVERSITY ST  ,37.7274,-122.41457
4599,FIELD RD/VISITOR CENTER,37.83048,-122.524411
4600,FIELD RD & BUNKER RD   ,37.831337,-122.523264
4601,FIELD RD/NIKE SITE,37.82906,-122.52767
4602,FIELD RD/YOUTH HOSTEL,37.83166,-122.52345
4603,FILLMORE ST & BAY ST  ,37.802585,-122.43668
4604,FILLMORE ST & BROADWAY  ,37.794158,-122.434842
4605,FILLMORE ST & BROADWAY  ,37.793805,-122.434878
4606,FILLMORE ST & BEACH ST  ,37.804423,-122.437127
4607,FILLMORE ST & BEACH ST  ,37.804447,-122.436958
4608,FILLMORE ST & CHESTNUT ST  ,37.801091,-122.436229
4609,FILLMORE ST & CHESTNUT ST  ,37.800891,-122.436469
4610,FILLMORE ST & CERVANTES BLVD  ,37.802817,-122.436806
4611,FILLMORE ST & EDDY ST  ,37.781733,-122.432329
4612,FILLMORE ST & EDDY ST  ,37.781523,-122.432401
4613,FILLMORE ST & GOLDEN GATE AVE ,37.779859,-122.431955
4614,FILLMORE ST & GEARY BLVD  ,37.784733,-122.432921
4615,FILLMORE ST & GEARY BLVD  ,37.783984,-122.43291
4616,FILLMORE ST & GROVE ST  ,37.776998,-122.431369
4617,FILLMORE ST & GROVE ST  ,37.776859,-122.431472
4618,FILLMORE ST & HAIGHT ST  ,37.772199,-122.430537
4620,FILLMORE ST & HAIGHT ST  ,37.772033,-122.430347
4621,FILLMORE ST & HAYES ST  ,37.776106,-122.431197
4622,FILLMORE ST & HAYES ST  ,37.775598,-122.431207
4623,FILLMORE ST & JACKSON ST  ,37.792761,-122.434556
4624,FILLMORE ST & JACKSON ST  ,37.792386,-122.434607
4625,FILLMORE ST & JEFFERSON ST  ,37.805421,-122.437389
4626,FILLMORE ST & LOMBARD ST  ,37.799707,-122.435952
4627,FILLMORE ST & LOMBARD ST  ,37.799595,-122.436051
4628,FILLMORE ST & MCALLISTER ST  ,37.77854,-122.431687
4629,FILLMORE ST & MCALLISTER ST  ,37.778343,-122.431762
4630,FILLMORE ST & NORTH POINT ST  ,37.803547,-122.436791
4631,FILLMORE ST & OAK ST  ,37.774268,-122.430825
4632,FILLMORE ST & OAK ST  ,37.773759,-122.430866
4633,FILLMORE ST & O'FARRELL ST  ,37.783193,-122.432627
4634,FILLMORE ST & O'FARRELL ST  ,37.783019,-122.432699
4635,FILLMORE ST & PINE ST  ,37.788049,-122.433565
4636,FILLMORE ST & PINE ST  ,37.787717,-122.433655
4637,FILLMORE ST & SACRAMENTO ST  ,37.789925,-122.4341
4638,FILLMORE ST & SACRAMENTO ST  ,37.789744,-122.433947
4640,FILLMORE ST & SUTTER ST  ,37.786051,-122.433244
4641,FILLMORE ST & SUTTER ST  ,37.785814,-122.433268
4642,FILLMORE ST & TURK ST  ,37.780204,-122.432138
4643,FILLMORE ST & UNION ST  ,37.797391,-122.435489
4645,FITZGERALD AVE & HAWES ST   ,37.719921,-122.389587
4646,FITZGERALD AVE & INGALLS ST   ,37.720966,-122.391453
4647,FITZGERALD AVE & JENNINGS ST   ,37.722028,-122.39332
4648,FITZGERALD AVE & KEITH ST   ,37.722895,-122.394842
4649,FOERSTER ST & FLOOD AVE  ,37.729795,-122.448765
4650,FOERSTER ST & JUDSON AVE  ,37.728492,-122.448753
4651,FOERSTER ST & MANGELS AVE  ,37.73315,-122.448948
4652,FOERSTER ST & MANGELS AVE  ,37.732989,-122.448788
4654,FOERSTER ST & TERESITA BLVD  ,37.734194,-122.448799
4657,FOLSOM ST & 3RD ST   ,37.783989,-122.398753
4658,FOLSOM ST & 4TH ST   ,37.782045,-122.401104
4659,FOLSOM ST & 5TH ST   ,37.780386,-122.403099
4660,FOLSOM ST & 6TH ST   ,37.778629,-122.405324
4661,FOLSOM ST & 7TH ST   ,37.776641,-122.407847
4662,FOLSOM ST & 8TH ST   ,37.775115,-122.409773
4663,FOLSOM ST & 9TH ST   ,37.773894,-122.411321
4664,FOLSOM ST & 11TH ST   ,37.771905,-122.413958
4665,FOLSOM ST & 11TH ST   ,37.771833,-122.41413
4666,FOLSOM ST & 14TH ST  ,37.768461,-122.415667
4667,FOLSOM ST & 14TH ST  ,37.768461,-122.41553
4668,FOLSOM ST & 16TH ST  ,37.76557,-122.415245
4669,FOLSOM ST & 16TH ST  ,37.765231,-122.415417
4671,FOLSOM ST & 18TH ST  ,37.762215,-122.414914
4672,FOLSOM ST & 18TH ST  ,37.761858,-122.415086
4675,FOLSOM ST & 22ND ST  ,37.755951,-122.414332
4676,FOLSOM ST & 22ND ST  ,37.75546,-122.414481
4677,FOLSOM ST & 24TH ST  ,37.752757,-122.414024
4680,FOLSOM ST & 25TH ST  ,37.750999,-122.414048
4681,FOLSOM ST & 25TH ST  ,37.750829,-122.413842
4686,FOLSOM ST & BESSIE ST  ,37.74687,-122.41362
4687,FOLSOM ST & CORTLAND AVE  ,37.73888,-122.4133
4688,FOLSOM ST & CORTLAND AVE  ,37.7388,-122.41337
4689,FOLSOM ST & CRESCENT AVE  ,37.73494,-122.41365
4690,FOLSOM ST & CRESCENT AVE  ,37.73483,-122.41372
4695,FOLSOM ST & OGDEN ST  ,37.73605,-122.41352
4696,FOLSOM ST & OGDEN ST  ,37.73579,-122.41364
4697,FOLSOM ST & PRECITA AVE  ,37.7471,-122.41349
4698,FOLSOM ST & STONEMAN ST  ,37.74532,-122.41336
4699,FOLSOM ST & STONEMAN ST  ,37.74521,-122.41345
4700,FOLSOM ST & TOMPKINS ST  ,37.73718,-122.41344
4701,FOLSOM ST & TOMPKINS ST  ,37.73716,-122.41352
4702,FONT BLVD & ARBALLO DR,37.72176,-122.482151
4703,FONT BLVD & ARBALLO DR   ,37.72184,-122.48254
4704,FONT BLVD & CHUMASERO DR   ,37.715213,-122.473169
4705,FONT BLVD & CAMBON DR   ,37.715899,-122.474292
4706,FONT BLVD & CAMBON DR   ,37.715899,-122.474578
4707,FONT BLVD & GONZALEZ DR,37.716782,-122.475758
4709,FONT BLVD & JUAN BAUTISTA CIR,37.717701,-122.477076
4710,FONT BLVD & SERRANO DR,37.719601,-122.479607
4712,FONT BLVD & TAPIA DR,37.72068,-122.480902
4714,FREDERICK ST & ARGUELLO BLVD  ,37.766047,-122.457635
4715,FREDERICK ST & ASHBURY ST  ,37.767261,-122.446691
4716,FREDERICK ST & ASHBURY ST  ,37.767145,-122.446462
4717,FREDERICK ST & CLAYTON ST  ,37.7671,-122.447917
4718,FREDERICK ST & STANYAN ST  ,37.766413,-122.453257
4719,FREDERICK ST & WILLARD ST  ,37.766208,-122.454908
4720,FREDERICK ST & WILLARD ST  ,37.766092,-122.454701
4725,FREMONT ST & MARKET ST   ,37.791645,-122.398151
4726,DON CHEE WAY/STEUART ST,37.794052,-122.393449
4727,DON CHEE WAY/STEUART ST ,37.793918,-122.393438
4728,FORT CRONKHITE PARKING LOT,37.83238,-122.53867
4729,MARINA BLVD & LAGUNA ST,37.805118,-122.432185
4730,FULTON ST & 4TH AVE  ,37.773952,-122.461659
4731,FULTON ST & 4TH AVE  ,37.77384,-122.46125
4732,FULTON ST & 6TH AVE  ,37.773639,-122.463848
4733,FULTON ST & 6TH AVE  ,37.773532,-122.463837
4734,FULTON ST & 8TH AVE  ,37.77347,-122.466049
4735,FULTON ST & 8TH AVE  ,37.773318,-122.465739
4736,FULTON ST & 10TH AVE  ,37.77335,-122.46839
4737,FULTON ST & 10TH AVE  ,37.77325,-122.46761
4742,FULTON ST & 18TH AVE  ,37.772959,-122.476776
4746,FULTON ST & 22ND AVE  ,37.77276,-122.48134
4747,FULTON ST & 22ND AVE  ,37.77266,-122.48061
4748,FULTON ST & 25TH AVE  ,37.772591,-122.484306
4749,FULTON ST & 25TH AVE  ,37.772547,-122.4841
4751,FULTON ST & 28TH AVE  ,37.77235,-122.48717
4753,FULTON ST & 30TH AVE  ,37.77224,-122.48919
4754,GEARY BLVD & MASONIC AVE  ,37.782152,-122.447286
4755,GEARY BLVD & PARK PRESIDIO BLVD,37.780687,-122.472423
4756,GEARY BLVD & PARK PRESIDIO BLVD,37.780526,-122.472676
4757,GEARY BLVD & POWELL ST  ,37.787401,-122.408391
4758,GEARY BLVD & PRESIDIO AVE   ,37.782608,-122.446152
4759,GEARY BLVD & PRESIDIO AVE  ,37.782384,-122.445865
4760,GEARY BLVD & SCOTT ST  ,37.783847,-122.437761
4761,GEARY BLVD & SCOTT ST  ,37.783624,-122.437669
4762,GEARY BLVD & SPRUCE ST  ,37.781849,-122.453075
4763,GEARY BLVD & SPRUCE ST  ,37.781599,-122.453258
4764,GEARY BLVD & STANYAN ST  ,37.78126,-122.456434
4765,GEARY BLVD & ST JOSEPH'S AVE  ,37.782795,-122.442541
4767,GEARY BLVD & TAYLOR ST  ,37.786983,-122.411681
4768,GEARY BLVD & VAN NESS AVE  ,37.785843,-122.420635
4769,GEARY BLVD & WEBSTER ST  ,37.784641,-122.431021
4770,GEARY BLVD & WEBSTER ST  ,37.784489,-122.431353
4771,CONCOURSE DR AT ACAD OF SCIENCES,37.770436,-122.466151
4772,TEA GARDEN DR/DEYOUNG MUSEUM,37.770534,-122.468925
4773,GOLDEN GATE BRIDGE/PARKING LOT,37.807561,-122.475024
4776,GOLDEN GATE BR TUNNEL/MERCHANT RD,37.806668,-122.475872
4777,GOLDEN GATE BRIDGE/TOLL PLAZA,37.806571,-122.475046
4778,GOLDEN GATE BRIDGE/TOLL PLAZA,37.807257,-122.475367
4779,GREAT HWY/NEAR BEACH CHALET,37.767879,-122.510284
4780,GREAT HWY/NEAR BEACH CHALET,37.76737,-122.510456
4781,LOWER GREAT HWY & RIVERA ST  ,37.74544,-122.50755
4782,GREAT HWY & SLOAT BLVD   ,37.735482,-122.506821
4783,GILMAN AVE & 3RD ST   ,37.722458,-122.395415
4784,GILMAN AVE & GRIFFITH ST   ,37.718234,-122.388272
4785,GILMAN AVE & INGALLS ST   ,37.72035,-122.391729
4786,GILMAN AVE & JENNINGS ST   ,37.721413,-122.393595
4787,SAN JOSE AVE/GLEN PARK STATION,37.732525,-122.433416
4788,SAN JOSE AVE/GLEN PARK STATION ,37.732401,-122.433855
4792,GENNESSEE ST & FLOOD AVE  ,37.729955,-122.451205
4795,1650 GENEVA AVE   ,37.71187,-122.42819
4796,1650 GENEVA AVE   ,37.71174,-122.42829
4798,1721 GENEVA AVE  ,37.71108,-122.42627
4799,1750 GENEVA AVE   ,37.71072,-122.42576
4803,GENEVA AVE/BALBOA PARK BART,37.720801,-122.446738
4805,GENEVA AVE/BALBOA PARK BART,37.720952,-122.447379
4808,GENEVA AVE & CASTELO ST   ,37.7079,-122.41823
4809,GENEVA AVE & CASTELO ST  ,37.7077,-122.41841
4810,GENEVA AVE & CAYUGA AVE   ,37.718927,-122.443554
4811,GENEVA AVE & CAYUGA AVE   ,37.718722,-122.443554
4816,GENEVA AVE & DELANO AVE   ,37.720069,-122.44526
4817,KISKA RD & REARDON RD  ,37.73004,-122.37711
4818,KEARNY ST & BUSH ST  ,37.791004,-122.403976
4819,KEARNY ST & CALIFORNIA ST  ,37.792878,-122.404364
4820,KEARNY ST & CLAY ST  ,37.794699,-122.404741
4821,KEARNY ST & GEARY BLVD  ,37.788051,-122.403461
4822,KEARNY ST & JACKSON ST  ,37.796126,-122.405027
4823,KEARNY ST & NORTH POINT ST  ,37.807182,-122.407211
4824,KEARNY ST & PACIFIC AVE  ,37.797331,-122.405267
4826,KEARNY ST & SUTTER ST  ,37.789746,-122.403724
4827,KIRKWOOD AVE & DORMITORY RD   ,37.72988,-122.37527
4828,1100 LAKE MERCED BLVD  ,37.70913,-122.48498
4829,1100 LAKE MERCED BLVD   ,37.709312,-122.485294
4833,LAKE MERCED BLVD & FONT BLVD  ,37.72423,-122.48489
4836,LAKE MERCED BLVD & LAKE MERCED HILLS BLVD,37.71153,-122.48527
4837,LAKE MERCED BLVD & LAKE MERCED HILLS BLVD,37.711203,-122.485513
4838,LAKE MERCED & MIDDLEFIELD DR,37.729628,-122.486404
4839,LAKE MERCED & MIDDLEFIELD DR,37.729441,-122.48629
4840,LAKE MERCED BLVD/SFSU,37.72606,-122.48434
4842,LA PLAYA ST & CABRILLO ST  ,37.773214,-122.509991
4843,LA PLAYA ST & CABRILLO ST  ,37.773214,-122.51006
4844,LA PLAYA ST & FULTON ST  ,37.77169,-122.50984
4845,LARKIN ST & BEACH ST  ,37.806348,-122.422083
4846,LARKIN ST & EDDY ST  ,37.783228,-122.417415
4847,LARKIN ST & GOLDEN GATE AVE  ,37.781693,-122.417106
4848,LARKIN ST & GROVE ST  ,37.778901,-122.416545
4850,LARKIN ST & MCALLISTER ST  ,37.780569,-122.416865
4851,LARKIN ST & O'FARRELL ST  ,37.785084,-122.417792
4852,LAWTON ST & 7TH AVE  ,37.758605,-122.464086
4853,LAWTON ST & 7TH AVE  ,37.758471,-122.463879
4854,LAWTON ST & 9TH AVE  ,37.758524,-122.465804
4855,LAWTON ST & 9TH AVE  ,37.75839,-122.46605
4856,LAWTON ST & 11TH AVE  ,37.7584,-122.46793
4857,LAWTON ST & 11TH AVE  ,37.75824,-122.46812
4858,LAWTON ST & FUNSTON AVE  ,37.7583,-122.47008
4859,LAWTON ST & FUNSTON AVE  ,37.7582,-122.47003
4860,LAWTON ST & LOMITA AVE  ,37.75913,-122.47227
4861,LAWTON ST & LOMITA AVE  ,37.75916,-122.47269
4862,LEAVENWORTH ST & BUSH ST  ,37.78922,-122.41529
4863,LEAVENWORTH ST & CALIFORNIA ST,37.79109,-122.41567
4864,LEAVENWORTH ST & CLAY ST  ,37.79295,-122.41604
4865,LEAVENWORTH ST & GEARY BLVD  ,37.78643,-122.4147
4866,LEAVENWORTH ST & JACKSON ST  ,37.79465,-122.41638
4867,LEAVENWORTH ST & O'FARRELL ST ,37.7855,-122.41453
4868,LEAVENWORTH ST & PINE ST  ,37.79015,-122.41548
4869,LEAVENWORTH ST & POST ST  ,37.78736,-122.41488
4870,LEAVENWORTH ST & SACRAMENTO ST,37.79206,-122.41586
4871,LEAVENWORTH ST & SUTTER ST  ,37.788322,-122.415097
4872,LEAVENWORTH ST & WASHINGTON ST,37.79382,-122.41622
4873,LEGION OF HONOR,37.785015,-122.499592
4874,LEGION OF HONOR,37.78498,-122.49969
4876,LAGUNA HONDA BLVD & BALCETA AVE,37.74537,-122.45709
4877,LAGUNA HONDA BLVD & BALCETA AVE,37.74529,-122.45718
4878,LAGUNA HONDA BLVD & CLARENDON AVE,37.751119,-122.461346
4879,GENEVA AVE & DELANO AVE   ,37.720283,-122.445363
4881,GENEVA AVE & HOWTH ST   ,37.722121,-122.449979
4882,GENEVA AVE & HOWTH ST   ,37.721978,-122.45007
4883,GENEVA AVE & MADRID ST   ,37.714768,-122.437587
4884,GENEVA AVE & MADRID ST   ,37.715143,-122.438034
4885,GENEVA AVE & MISSION ST   ,37.716589,-122.441069
4886,GENEVA AVE & MISSION ST   ,37.716473,-122.440874
4888,GENEVA AVE & MUNICH ST   ,37.712948,-122.43303
4889,GENEVA AVE & MOSCOW ST   ,37.713332,-122.433957
4890,GENEVA AVE & NAPLES ST   ,37.714251,-122.436042
4891,GENEVA AVE & NAPLES ST   ,37.714028,-122.435961
4892,GENEVA AVE & PARIS ST   ,37.715714,-122.439305
4893,GENEVA AVE & PARIS ST   ,37.715679,-122.439614
4894,GENEVA AVE & PRAGUE ST   ,37.712832,-122.431805
4895,GENEVA AVE & RIO VERDE ST  ,37.706939,-122.415534
4898,GENEVA AVE & SAN JOSE AVE  ,37.720729,-122.446692
4899,GENEVA AVE & SANTOS ST   ,37.708368,-122.419954
4900,GENEVA AVE & SANTOS ST   ,37.708484,-122.420354
4905,GOUGH ST & SACRAMENTO ST  ,37.791041,-122.425771
4908,GRAFTON AVE & CAPITOL AVE  ,37.719953,-122.45929
4910,GRAFTON AVE & GRANADA AVE  ,37.719962,-122.457251
4911,GRAFTON AVE & HAROLD AVE  ,37.72008,-122.453
4912,GRAFTON AVE & JULES AVE  ,37.719952,-122.461329
4913,GRAFTON AVE & LEE ST  ,37.71999,-122.45421
4915,GRAFTON AVE & PLYMOUTH AVE  ,37.719962,-122.456232
4920,GROVE ST & GOUGH ST  ,37.777748,-122.423306
4921,GROVE ST & LAGUNA ST  ,37.777382,-122.426324
4923,GROVE ST & VAN NESS AVE  ,37.778188,-122.419743
4924,GRAND VIEW AVE & 21ST ST  ,37.75504,-122.44043
4925,GRAND VIEW AVE & 22ND ST  ,37.75405,-122.44115
4926,GRAND VIEW AVE & 23RD ST  ,37.75249,-122.44257
4927,GRAND VIEW AVE & 23RD ST  ,37.7523,-122.44246
4928,GRAND VIEW AVE & 24TH ST  ,37.75084,-122.44282
4929,GRAND VIEW AVE & 24TH ST  ,37.7507,-122.44274
4930,GRAND VIEW AVE & 25TH ST  ,37.74926,-122.44261
4931,GRAND VIEW AVE & 25TH ST  ,37.74907,-122.44253
4932,GRAND VIEW AVE & CLIPPER ST  ,37.74852,-122.44251
4933,GRAND VIEW AVE & CLIPPER ST  ,37.748229,-122.442635
4934,GATEVIEW AVE & BAYSIDE DR,37.829848,-122.375254
4935,GATEVIEW AVE & MASON CT  ,37.828181,-122.377217
4936,GATEVIEW AVE & NORTH POINT ST,37.82982,-122.373477
4937,HAHN ST & SUNNYDALE AVE  ,37.71201,-122.4159
4938,HAHN ST & SUNNYDALE AVE,37.712025,-122.416047
4940,HAIGHT ST & BAKER ST  ,37.770928,-122.440261
4941,HAIGHT ST & BUCHANAN ST  ,37.772612,-122.427058
4942,HAIGHT ST & BUCHANAN ST  ,37.772434,-122.427321
4943,HAIGHT ST & BUENA VISTA EAST AVE ,37.770749,-122.440548
4946,HAIGHT ST & CLAYTON ST  ,37.769893,-122.448467
4947,HAIGHT ST & CLAYTON ST  ,37.769714,-122.448662
4950,HAIGHT ST & DIVISADERO ST  ,37.771293,-122.437373
4951,HAIGHT ST & DIVISADERO ST  ,37.771231,-122.436743
4952,HAIGHT ST & FILLMORE ST  ,37.77214,-122.43076
4953,HAIGHT ST & FILLMORE ST  ,37.772095,-122.430347
4954,HAIGHT ST & GOUGH ST  ,37.773183,-122.422553
4955,HAIGHT ST & LAGUNA ST  ,37.772764,-122.425843
4957,HAIGHT ST & MASONIC AVE  ,37.770232,-122.445476
4958,HAIGHT ST & MASONIC AVE  ,37.770196,-122.445292
4960,HAIGHT ST & PIERCE ST  ,37.771775,-122.433637
4961,HAIGHT ST & PIERCE ST  ,37.771605,-122.433854
4962,HAIGHT ST & STANYAN ST   ,37.769331,-122.452845
4963,HAIGHT ST & STANYAN ST  ,37.76917,-122.453075
4964,HAMPSHIRE ST & 24TH ST  ,37.752826,-122.407218
4966,HARRISON ST & 2ND ST   ,37.784193,-122.395451
4967,HARRISON ST & 3RD ST   ,37.782436,-122.397676
4968,HARRISON ST & 4TH ST   ,37.780671,-122.399913
4969,HARRISON ST & 5TH ST   ,37.778914,-122.402137
4970,HARRISON ST & 6TH ST   ,37.777148,-122.404362
4971,HARRISON ST & 7TH ST   ,37.775498,-122.406438
4972,HARRISON ST & 8TH ST   ,37.773866,-122.408513
4973,HARRISON ST & 9TH ST   ,37.772403,-122.410371
4976,HAWES ST & GILMAN AVE   ,37.719198,-122.390012
4979,HAYES ST & BAKER ST  ,37.774573,-122.441501
4980,HAYES ST & BAKER ST  ,37.774509,-122.441259
4983,HAYES ST & BUCHANAN ST  ,37.776261,-122.428274
4984,HAYES ST & BUCHANAN ST  ,37.776244,-122.427555
4985,HAYES ST & CENTRAL AVE  ,37.774195,-122.444298
4986,HAYES ST & CENTRAL AVE  ,37.77409,-122.444515
4987,HAYES ST & CLAYTON ST  ,37.773605,-122.449166
4988,HAYES ST & CLAYTON ST  ,37.773417,-122.449464
4991,HAYES ST & DIVISADERO ST  ,37.775005,-122.437945
4992,HAYES ST & DIVISADERO ST  ,37.774978,-122.437728
4993,HAYES ST & FILLMORE ST  ,37.775838,-122.431561
4994,HAYES ST & FILLMORE ST  ,37.775804,-122.430834
4996,HAYES ST & GOUGH ST  ,37.776893,-122.423326
4997,HAYES ST & LARKIN ST  ,37.777709,-122.416852
4998,HAYES ST & LAGUNA ST  ,37.77653,-122.426146
5000,HAYES ST & LYON ST  ,37.77429,-122.442862
5001,HAYES ST & MASONIC AVE  ,37.773953,-122.446221
5002,HAYES ST & MASONIC AVE  ,37.773926,-122.446003
5003,HAYES ST & PIERCE ST  ,37.775472,-122.434443
5004,HAYES ST & PIERCE ST  ,37.775413,-122.434177
5007,HAYES ST & SHRADER ST  ,37.77317,-122.452502
5009,HAYES ST & STANYAN ST  ,37.77296,-122.454148
5011,HAYES ST & STEINER ST  ,37.775627,-122.433203
5012,HAYES ST & STEINER ST  ,37.775627,-122.432476
5013,HAYES ST & VAN NESS AVE  ,37.777286,-122.42019
5014,HAYES ST & WEBSTER ST  ,37.776056,-122.429879
5015,HAYES ST & WEBSTER ST  ,37.776035,-122.42919
5017,HERMANN ST & FILLMORE ST  ,37.770307,-122.429929
5018,HERMANN ST & FILLMORE ST  ,37.770248,-122.429701
5029,HOLYOKE ST & WAYLAND ST  ,37.72522,-122.40812
5030,HOLYOKE ST & WAYLAND ST  ,37.72507,-122.40798
5031,HOFFMAN AVE & 22ND ST  ,37.75401,-122.44089
5032,HOFFMAN AVE & 23RD ST  ,37.75241,-122.44074
5033,HOFFMAN AVE & 24TH ST  ,37.75103,-122.440561
5034,HOLLOWAY AVE & BEVERLY ST  ,37.72161,-122.471797
5036,HOLLOWAY AVE & JUNIPERO SERRA BLVD,37.721592,-122.472954
5037,HOLLOWAY AVE & JUNIPERO SERRA BLVD,37.721485,-122.472713
5038,HOWTH ST & GENEVA AVE   ,37.72193,-122.45028
5039,HOWTH ST & MT VERNON AVE   ,37.71978,-122.45164
5040,HOWTH ST & NIAGRA AVE   ,37.72063,-122.4511
5041,HUDSON AVE & 3RD ST   ,37.740336,-122.388724
5042,HUDSON AVE & ARDATH CT  ,37.73469,-122.38305
5043,HUDSON AVE & CASHMERE ST   ,37.73596,-122.38353
5044,HUDSON AVE & INGALLS ST  ,37.732497,-122.37991
5045,HUDSON AVE & INGALLS ST  ,37.73239,-122.379692
5046,HUDSON AVE & KEITH ST   ,37.7377,-122.38412
5047,HUDSON AVE & KEITH ST   ,37.73759,-122.38416
5048,HUDSON AVE & MENDELL ST   ,37.73896,-122.38628
5049,HUDSON AVE & MENDELL ST   ,37.739,-122.38654
5050,HUDSON AVE & WHITNEY YOUNG CIR,37.733319,-122.381845
5051,HUDSON AVE & WHITNEY YOUNG CIR,37.733355,-122.38212
5056,HOWARD ST & MAIN ST   ,37.790394,-122.393544
5057,HOWARD ST & SPEAR ST   ,37.791401,-122.392534
5059,HYDE ST & BAY ST   ,37.804795,-122.4201
5060,HYDE ST & BAY ST   ,37.804777,-122.420261
5061,HYDE ST & BROADWAY  ,37.796496,-122.418578
5062,HYDE ST & BROADWAY  ,37.796345,-122.418395
5063,HYDE ST & BEACH ST  ,37.806686,-122.420615
5064,HYDE ST & BEACH ST  ,37.806642,-122.420535
5065,HYDE ST & CALIFORNIA ST  ,37.79111,-122.41747
5066,HYDE ST & CHESTNUT ST  ,37.80284,-122.4197
5067,HYDE ST & CHESTNUT ST   ,37.802912,-122.419883
5068,HYDE ST & CLAY ST  ,37.79287,-122.41784
5069,HYDE ST & FILBERT ST   ,37.800173,-122.419162
5070,HYDE ST & FILBERT ST  ,37.800208,-122.419334
5071,HYDE ST & FULTON ST  ,37.779364,-122.415135
5072,HYDE ST & GREENWICH ST  ,37.801011,-122.419494
5073,HYDE ST & GREENWICH ST  ,37.800993,-122.419322
5074,HYDE ST & GREEN ST   ,37.798308,-122.418784
5075,HYDE ST & GREEN ST  ,37.798343,-122.418956
5076,HYDE ST & JACKSON ST   ,37.794542,-122.418189
5077,HYDE ST & LOMBARD ST   ,37.801912,-122.419562
5078,HYDE ST & LOMBARD ST  ,37.801859,-122.419665
5079,HYDE ST & MCALLISTER ST  ,37.780783,-122.415421
5080,HYDE ST & NORTH POINT ST  ,37.805633,-122.420272
5081,HYDE ST & NORTH POINT ST   ,37.805705,-122.420455
5082,HYDE ST & PACIFIC AVE  ,37.7954,-122.4182
5083,HYDE ST & PACIFIC AVE  ,37.795354,-122.418361
5084,HYDE ST & PINE ST  ,37.79017,-122.4173
5085,HYDE ST & SACRAMENTO ST  ,37.79183,-122.41763
5087,HYDE ST & TURK ST  ,37.782648,-122.415799
5088,HYDE ST & UNION ST   ,37.799236,-122.418979
5089,HYDE ST & UNION ST   ,37.799182,-122.419139
5090,HYDE ST & VALLEJO ST  ,37.79744,-122.41863
5091,HYDE ST & VALLEJO ST  ,37.797406,-122.418773
5092,INDUSTRIAL ST & BAY SHORE BLVD,37.738148,-122.406539
5093,INDUSTRIAL ST & BAY SHORE BLVD,37.737943,-122.40678
5094,INDUSTRIAL ST & ELMIRA ST  ,37.73879,-122.40373
5095,INDUSTRIAL ST & PALOU AVE   ,37.73955,-122.40101
5096,INDUSTRIAL ST & REVERE AVE  ,37.73913,-122.40305
5097,INNES AVE & EARL ST   ,37.729878,-122.371871
5098,INNES AVE & EARL ST   ,37.729869,-122.372134
5099,INNES AVE & FITCH ST   ,37.730941,-122.37376
5100,INNES AVE & FITCH ST   ,37.730932,-122.374035
5101,INNES AVE & GRIFFITH ST   ,37.732004,-122.375614
5102,INNES AVE & GRIFFITH ST   ,37.73199,-122.37588
5103,INNES AVE & HUNTERS POINT BLVD ,37.732915,-122.377229
5104,INNES AVE & HUNTERS POINT BLVD ,37.732709,-122.377172
5106,INGALLS ST & BEATRICE LN   ,37.73058,-122.38034
5107,INGALLS ST & HARBOR RD  ,37.73347,-122.380023
5108,INGALLS ST & HARBOR RD  ,37.7333,-122.37984
5110,INGALLS ST & REVERE AVE   ,37.72837,-122.3846
5111,INGALLS ST & THOMAS AVE   ,37.72735,-122.38563
5112,INGALLS ST & THOMAS AVE   ,37.72711,-122.38572
5113,INGALLS ST & VAN DYKE AVE   ,37.726041,-122.386685
5114,INGALLS ST & VAN DYKE AVE   ,37.72611,-122.38677
5115,INGERSON AVE & GRIFFITH ST   ,37.717012,-122.389212
5116,INGERSON AVE & HAWES ST   ,37.718039,-122.390998
5118,IRVING ST & 2ND AVE  ,37.764441,-122.458643
5119,IRVING ST & 4TH AVE  ,37.764299,-122.460824
5120,IRVING ST & 4TH AVE  ,37.764226,-122.461061
5121,IRVING ST & 7TH AVE  ,37.764155,-122.464034
5122,IRVING ST & 7TH AVE  ,37.764092,-122.464282
5123,IRVING ST & 9TH AVE  ,37.764106,-122.466165
5124,IRVING ST & ARGUELLO BLVD  ,37.764366,-122.458024
5125,515 JOHN MUIR DR  ,37.716241,-122.495342
5126,515 JOHN MUIR DR  ,37.71607,-122.49539
5129,655 JOHN MUIR AVE  ,37.717007,-122.49777
5130,655 JOHN MUIR AVE  ,37.71677,-122.49766
5131,JOHN MUIR DR & SKYLINE BLVD  ,37.718996,-122.500028
5132,JOHN MUIR DR & SKYLINE BLVD   ,37.718738,-122.499913
5134,JUNIPERO SERRA BLVD & BROTHERHOOD WAY,37.71355,-122.47126
5135,JUNIPERO SERRA BLVD/S.F. GOLF CLUB,37.710707,-122.471324
5136,JUNIPERO SERRA BLVD & FONT BLVD,37.71463,-122.47191
5138,JUNIPERO SERRA BLVD & OCEAN AVE,37.731363,-122.471674
5139,JUNIPERO SERRA BLVD & OCEAN AVE,37.731238,-122.471858
5140,JUNIPERO SERRA BLVD & PALMETTO AV,37.71091,-122.47099
5141,JUNIPERO SERRA BLVD & SLOAT BLVD ,37.734307,-122.471675
5142,JACKSON ST & BAKER ST  ,37.791281,-122.444362
5143,JACKSON ST & BAKER ST  ,37.791186,-122.444246
5144,JACKSON ST & BUCHANAN ST  ,37.792965,-122.431202
5145,JACKSON ST & DIVISADERO ST  ,37.791724,-122.440888
5146,JACKSON ST & DIVISADERO ST  ,37.791565,-122.441307
5147,JACKSON ST & FILLMORE ST  ,37.792529,-122.434676
5148,JACKSON ST & FRANKLIN ST  ,37.793812,-122.424598
5149,JACKSON ST & GOUGH ST  ,37.79358,-122.42621
5150,JACKSON ST & HYDE ST  ,37.79464,-122.417994
5151,JACKSON ST & HYDE ST  ,37.794605,-122.418293
5152,JACKSON ST & JONES ST   ,37.795041,-122.414842
5153,JACKSON ST & LARKIN ST  ,37.79441,-122.41963
5154,JACKSON ST & LEAVENWORTH ST  ,37.794854,-122.416366
5155,JACKSON ST & LAGUNA ST  ,37.79315,-122.4295
5156,JACKSON ST & MASON ST  ,37.79545,-122.411712
5157,JACKSON ST & OCTAVIA ST  ,37.79336,-122.42786
5158,JACKSON ST & POLK ST  ,37.79419,-122.42129
5159,JACKSON ST & PRESIDIO AVE  ,37.790902,-122.447365
5160,JACKSON ST & SCOTT ST  ,37.791932,-122.43924
5161,JACKSON ST & SCOTT ST  ,37.791772,-122.439612
5162,JACKSON ST & STEINER ST  ,37.79235,-122.436109
5163,JACKSON ST & STEINER ST  ,37.792201,-122.43632
5164,JACKSON ST & TAYLOR ST   ,37.795255,-122.413202
5165,JACKSON ST & VAN NESS AVE  ,37.793999,-122.422867
5166,JACKSON ST & VAN NESS AVE  ,37.793954,-122.423154
5167,JACKSON ST & WEBSTER ST  ,37.792716,-122.433025
5170,JUAN BAUTISTA CIR & FONT BLVD ,37.718691,-122.478427
5171,JUDSON AVE & GENNESSEE ST  ,37.728421,-122.451285
5172,JUDSON AVE & GENNESSEE ST  ,37.728296,-122.451228
5173,JEFFERSON ST & DIVISADERO ST  ,37.804557,-122.443892
5174,JEFFERSON ST & POWELL ST  ,37.808594,-122.413357
5175,JEFFERSON ST & TAYLOR ST  ,37.80832,-122.415514
5176,JERROLD AVE & PHELPS ST   ,37.739846,-122.391416
5177,JERROLD AVE & QUINT ST   ,37.7409,-122.392973
5178,JERROLD AVE & QUINT ST   ,37.740694,-122.392916
5179,JERROLD AVE & RANKIN ST  ,37.742087,-122.394931
5180,JERROLD AVE & RANKIN ST   ,37.741704,-122.394691
5181,JERROLD AVE & SELBY ST   ,37.743302,-122.396787
5182,JERROLD AVE & SELBY ST   ,37.742775,-122.396936
5184,JONES ST & BEACH ST  ,37.807132,-122.417324
5185,JONES ST & GEARY BLVD  ,37.78686,-122.41325
5186,JONES ST & POST ST  ,37.78781,-122.41344
5187,JONES ST & SUTTER ST  ,37.78869,-122.41361
5189,JUDAH ST & 5TH AVE  ,37.762299,-122.462001
5190,JUDAH ST & 6TH AVE  ,37.762397,-122.462849
5191,JUDAH ST & 7TH AVE  ,37.762334,-122.46435
5192,JUDAH ST & 7TH AVE  ,37.762201,-122.464144
5193,JUDAH ST & 9TH AVE  ,37.762227,-122.466688
5194,JUDAH ST & 9TH AVE  ,37.762139,-122.466312
5195,JUDAH ST & 12TH AVE  ,37.762069,-122.469324
5196,JUDAH ST & 12TH AVE  ,37.761988,-122.469526
5197,JUDAH ST & 15TH AVE  ,37.761848,-122.472777
5198,JUDAH ST & 16TH AVE   ,37.761913,-122.473781
5199,JUDAH ST & 19TH AVE  ,37.761743,-122.476921
5200,JUDAH ST & 19TH AVE  ,37.761655,-122.477194
5201,JUDAH ST & 22ND AVE  ,37.761534,-122.479855
5202,JUDAH ST & 23RD AVE  ,37.761547,-122.481164
5203,JUDAH ST & 25TH AVE  ,37.761452,-122.4833
5204,JUDAH ST & 25TH AVE  ,37.761373,-122.48356
5205,JUDAH ST & 28TH AVE  ,37.76131,-122.48651
5206,JUDAH ST & 28TH AVE  ,37.761232,-122.486763
5207,JUDAH ST & 31ST AVE  ,37.761172,-122.489719
5208,JUDAH ST & 31ST AVE  ,37.761105,-122.4895
5209,JUDAH ST & 34TH AVE  ,37.761028,-122.49293
5210,JUDAH ST & 34TH AVE  ,37.760955,-122.493199
5211,JUDAH ST & 40TH AVE  ,37.760743,-122.499359
5212,JUDAH ST & 40TH AVE  ,37.760679,-122.499154
5213,JUDAH ST & 43RD AVE  ,37.760598,-122.502574
5214,JUDAH ST & 43RD AVE  ,37.760518,-122.502839
5215,JUDAH ST & 46TH AVE  ,37.760493,-122.505832
5216,JUDAH ST & 46TH AVE  ,37.760392,-122.506064
5218,JUDAH ST & 48TH AVE  ,37.760269,-122.508135
5219,JUDAH ST & FUNSTON AVE  ,37.762075,-122.470329
5220,JUDAH ST & FUNSTON AVE  ,37.76195,-122.470572
5221,JUDAH/LA PLAYA/OCEAN BEACH  ,37.760363,-122.509011
5223,JUDAH/LA PLAYA/OCEAN BEACH,37.760304,-122.508181
5224,JUDAH ST & SUNSET BLVD  ,37.760917,-122.495668
5225,JUDAH ST & SUNSET BLVD  ,37.760845,-122.495805
5226,KANSAS ST & 17TH ST  ,37.76482,-122.403617
5227,KANSAS ST & 23RD ST  ,37.75443,-122.402485
5228,KANSAS ST & 25TH ST  ,37.751887,-122.402223
5229,KANSAS ST & 26TH ST  ,37.750834,-122.402121
5232,KEITH ST & OAKDALE AVE   ,37.732581,-122.386634
5233,KEITH ST & OAKDALE AVE   ,37.732367,-122.386611
5234,KING ST & 2ND ST   ,37.77972,-122.389872
5235,KING ST & 2ND ST   ,37.7796,-122.38955
5236,KING ST & 2ND ST   ,37.7798,-122.38994
5237,KING ST & 2ND ST   ,37.779621,-122.389824
5239,KING ST & 4TH ST   ,37.776269,-122.394173
5240,KING ST & 4TH ST   ,37.776269,-122.394082
5241,KING ST & 6TH ST/NOT A PUBLIC STOP,37.773318,-122.397774
5242,KISKA RD & INGALLS ST   ,37.73108,-122.37939
5243,LAGUNA HONDA BLVD & CLARENDON AVE,37.75095,-122.461048
5244,LAGUNA HONDA BLVD & DEWEY BLVD ,37.747256,-122.459042
5245,LAGUNA HONDA BLVD/OPP FOREST HILL,37.748327,-122.458836
5247,LAGUNA HONDA BLVD/FOREST HILL STA,37.748211,-122.458905
5249,LAGUNA HONDA BLVD & IDORA AVE  ,37.743999,-122.456407
5250,LAGUNA HONDA BLVD & IDORA AVE  ,37.74415,-122.45663
5253,1798 LAGUNA HONDA BLVD,37.754652,-122.463798
5254,LAGUNA HONDA BLVD & PORTOLA DR ,37.74311,-122.45548
5255,LAGUNA HONDA BLVD & ULLOA ST   ,37.743473,-122.455776
5256,LAGUNA HONDA BLVD & VASQUEZ AVE,37.74602,-122.45816
5257,LAGUNA ST & CHESTNUT ST  ,37.801513,-122.431418
5258,LAGUNA ST & CHESTNUT ST  ,37.80135,-122.43123
5260,LAGUNA ST & HAYES ST  ,37.776752,-122.42627
5261,LEGION OF HONOR DR & CLEMENT ST,37.781653,-122.494615
5263,LINCOLN BLVD & BOWLEY ST  ,37.788393,-122.482457
5269,LINCOLN BLVD & PERSHING DR   ,37.792088,-122.480968
5272,LOMBARD ST & DIVISADERO ST  ,37.798882,-122.442735
5273,LOMBARD ST & DIVISADERO ST  ,37.799078,-122.442861
5274,LOMBARD ST & FILLMORE ST  ,37.799711,-122.43613
5275,LOMBARD ST & FILLMORE ST  ,37.799881,-122.435958
5276,LOMBARD ST & GRANT AVE  ,37.8035,-122.40807
5277,LOMBARD ST & GRANT AVE  ,37.803381,-122.408039
5278,LOMBARD ST & KEARNY ST  ,37.8037,-122.40651
5279,LOMBARD ST & KEARNY ST  ,37.803559,-122.406525
5280,LOMBARD ST & LAGUNA ST  ,37.80057,-122.43101
5281,LOMBARD ST & LAGUNA ST  ,37.80037,-122.43121
5282,LOMBARD ST & LYON ST  ,37.798543,-122.44716
5283,LOMBARD ST & LYON ST  ,37.798418,-122.447137
5284,LOMBARD ST & PIERCE ST  ,37.799292,-122.439421
5285,LOMBARD ST & PIERCE ST  ,37.799542,-122.439192
5286,LOMBARD ST & STOCKTON ST  ,37.80328,-122.40963
5288,LA SALLE AVE & INGALLS ST  ,37.73077,-122.3814
5289,LA SALLE AVE & NEWCOMB AVE   ,37.73298,-122.38479
5290,LA SALLE AVE & OSCEOLA DR  ,37.73137,-122.38172
5291,LOUISBURG ST & GENEVA AVE   ,37.72163,-122.44935
5292,LOUISBURG ST & NIAGRA AVE   ,37.72039,-122.45013
5293,LETTERMAN DR/TIDES BLDG,37.799382,-122.451849
5294,LETTERMAN DR & LINCOLN BLVD,37.79922,-122.45172
5295,LINCOLN WAY & 3RD AVE  ,37.76612,-122.46014
5296,LINCOLN WAY & 5TH AVE  ,37.76618,-122.46246
5297,LINCOLN WAY & 5TH AVE  ,37.766047,-122.461887
5298,LINCOLN WAY & 7TH AVE  ,37.766091,-122.464603
5299,LINCOLN WAY & 7TH AVE  ,37.765957,-122.464007
5300,LINCOLN WAY & 9TH AVE  ,37.766001,-122.466746
5301,LINCOLN WAY & 9TH AVE  ,37.765859,-122.46623
5302,LINCOLN WAY & 11TH AVE  ,37.765903,-122.468889
5303,LINCOLN WAY & 11TH AVE  ,37.76575,-122.46871
5304,LINCOLN WAY & 15TH AVE  ,37.765715,-122.473221
5305,LINCOLN WAY & 15TH AVE  ,37.76556,-122.47305
5306,LINCOLN WAY & 17TH AVE  ,37.765616,-122.475421
5307,LINCOLN WAY & 17TH AVE  ,37.76546,-122.47524
5309,LINCOLN WAY & 19TH AVE  ,37.765526,-122.47761
5310,LINCOLN WAY & 21ST AVE  ,37.765428,-122.479696
5311,LINCOLN WAY & 21ST AVE  ,37.765285,-122.479489
5312,LINCOLN WAY & 23RD AVE  ,37.765329,-122.481839
5313,LINCOLN WAY & 23RD AVE  ,37.765195,-122.481632
5314,LINCOLN WAY & 25TH AVE  ,37.765221,-122.483993
5315,LINCOLN WAY & 25TH AVE  ,37.765105,-122.483363
5316,LINCOLN WAY & 27TH AVE  ,37.765131,-122.486136
5317,LINCOLN WAY & 27TH AVE  ,37.765016,-122.485506
5318,LINCOLN WAY & 29TH AVE  ,37.765032,-122.488267
5319,LINCOLN WAY & 30TH AVE  ,37.764881,-122.488714
5320,LINCOLN WAY & 31ST AVE  ,37.764943,-122.490422
5321,LINCOLN WAY & 33RD AVE  ,37.764844,-122.492565
5323,LINCOLN WAY & 35TH AVE  ,37.764754,-122.494708
5324,LINCOLN WAY & 47TH AVE  ,37.764186,-122.507405
5325,LINCOLN WAY & ARGUELLO BLVD  ,37.765984,-122.457956
5326,LINCOLN WAY & FUNSTON AVE  ,37.765813,-122.471032
5327,LINCOLN WAY & FUNSTON AVE  ,37.76565,-122.47086
5328,LINCOLN WAY & GREAT HWY  ,37.764131,-122.510052
5329,LINCOLN WAY & LA PLAYA ST  ,37.763926,-122.50957
5330,LYELL ST & ALEMANY BLVD  ,37.730641,-122.431331
5331,LYON ST & GREENWICH ST  ,37.797428,-122.447206
5334,MAIN ST & HOWARD ST   ,37.791116,-122.393956
5335,MAIN ST & MISSION ST   ,37.791991,-122.395033
5336,MAIN ST & MARKET ST  ,37.79253,-122.39567
5337,MANSELL ST & BRUSSELS ST  ,37.721096,-122.403067
5338,MANSELL ST & BRUSSELS ST   ,37.720926,-122.403124
5339,MANSELL ST & DARTMOUTH ST   ,37.719581,-122.408886
5340,MANSELL ST & DARTMOUTH ST   ,37.719376,-122.409058
5341,MANSELL ST & GOETTINGEN ST   ,37.720677,-122.404098
5342,MANSELL ST & GOETTINGEN ST   ,37.720766,-122.404338
5343,MANSELL ST & HAMILTON ST   ,37.720098,-122.406916
5344,MANSELL ST & HAMILTON ST   ,37.719892,-122.407088
5345,MANSELL ST & JOHN F SHELLEY DR,37.718119,-122.414464
5346,MANSELL ST & JOHN F SHELLEY DR,37.718039,-122.414258
5347,MANSELL ST & JOHN F SHELLEY DR,37.718897,-122.418804
5348,MANSELL ST & JOHN F SHELLEY DR,37.718718,-122.418633
5349,MANSELL ST & SAN BRUNO AVE   ,37.721443,-122.401154
5350,MANSELL ST & SAN BRUNO AVE   ,37.721541,-122.401394
5351,MANSELL ST & SOMERSET ST   ,37.720418,-122.405094
5352,MANSELL ST & SOMERSET ST   ,37.720525,-122.405117
5353,MANSELL ST & UNIVERSITY ST   ,37.718957,-122.411257
5354,MANSELL ST & VISITACION AVE   ,37.71877,-122.41136
5355,MASON ST & BROADWAY,37.797208,-122.411825
5356,MASON ST & BROADWAY  ,37.797351,-122.412009
5357,MASON ST & ELLIS ST  ,37.78507,-122.40951
5358,MASON ST & FILBERT ST   ,37.800965,-122.41258
5359,MASON ST & FILBERT ST   ,37.800902,-122.412729
5360,MASON ST & GREENWICH ST   ,37.801929,-122.412775
5361,MASON ST & GREENWICH ST   ,37.80183,-122.412924
5362,MASON ST & GREEN ST   ,37.7991,-122.412203
5363,MASON ST & GREEN ST  ,37.79902,-122.412352
5364,MASON ST & JACKSON ST  ,37.795513,-122.41154
5365,MASON ST & JACKSON ST  ,37.795602,-122.411666
5366,MASON ST & PACIFIC AVE  ,37.7962,-122.411619
5367,MASON ST & PACIFIC AVE  ,37.79612,-122.411769
5368,MASON ST & UNION ST   ,37.800037,-122.412397
5369,MASON ST & UNION ST   ,37.799974,-122.412546
5370,MASON ST & VALLEJO ST   ,37.798199,-122.41202
5371,MASON ST & VALLEJO ST  ,37.798243,-122.412192
5372,MASON ST & WASHINGTON ST  ,37.794504,-122.411059
5384,MCALLISTER ST & BAKER ST  ,37.777397,-122.441659
5385,MCALLISTER ST & BAKER ST  ,37.77731,-122.44185
5389,MCALLISTER ST & DIVISADERO ST ,37.777825,-122.438289
5390,MCALLISTER ST & DIVISADERO ST ,37.77773,-122.43851
5391,MCALLISTER ST & FILLMORE ST  ,37.77864,-122.43207
5392,MCALLISTER ST & FILLMORE ST  ,37.778618,-122.431744
5393,MCALLISTER ST & GOUGH ST  ,37.77969,-122.42386
5394,MCALLISTER ST & GOUGH ST  ,37.779607,-122.423457
5395,MCALLISTER ST & HYDE ST  ,37.78073,-122.41569
5396,MCALLISTER ST & HYDE ST   ,37.78061,-122.41587
5397,MCALLISTER ST & LARKIN ST  ,37.78051,-122.41741
5398,MCALLISTER ST & LAGUNA ST  ,37.779331,-122.426941
5399,MCALLISTER ST & LAGUNA ST  ,37.779188,-122.426781
5400,MCALLISTER ST & PIERCE ST  ,37.778244,-122.435045
5401,MCALLISTER ST & PIERCE ST  ,37.77815,-122.43519
5404,MCALLISTER ST & VAN NESS AVE  ,37.78009,-122.42071
5405,MCALLISTER ST & VAN NESS AVE  ,37.780052,-122.420178
5417,METRO POWELL STATION/DOWNTOWN,37.784199,-122.407695
5418,BALBOA PARK BART/MEZZANINE LEVEL,37.721809,-122.447425
5419,METRO VAN NESS STATION,37.775127,-122.419252
5420,MONTEREY BLVD & ACADIA ST  ,37.731668,-122.437768
5422,MONTEREY BLVD & BADEN ST  ,37.731668,-122.439635
5423,MONTEREY BLVD & BADEN ST  ,37.731516,-122.439853
5424,MONTEREY BLVD & CONGO ST  ,37.731659,-122.441915
5425,MONTEREY BLVD & CONGO ST  ,37.731508,-122.442133
5426,MONTEREY BLVD & DETROIT ST  ,37.731642,-122.444607
5427,MONTEREY BLVD & DETROIT ST  ,37.731508,-122.443977
5428,MONTEREY BLVD & EDNA ST  ,37.731633,-122.446474
5429,MONTEREY BLVD & EDNA ST  ,37.731481,-122.446692
5430,MONTEREY BLVD & EL VERANO WAY ,37.73008,-122.461502
5431,MONTEREY BLVD & FAXON AVE   ,37.730695,-122.459085
5432,MONTEREY BLVD & FOERSTER ST  ,37.731615,-122.449166
5433,MONTEREY BLVD & FOERSTER ST  ,37.731481,-122.448536
5434,MONTEREY BLVD & GENNESSEE ST  ,37.731472,-122.451239
5435,MONTEREY BLVD & GENNESSEE ST  ,37.731615,-122.451445
5436,MONTEREY BLVD & NORTHGATE DR  ,37.729972,-122.461857
5437,MONTEREY BLVD & PLYMOUTH AVE  ,37.731115,-122.457322
5438,MONTEREY BLVD & PLYMOUTH AVE  ,37.730874,-122.457654
5439,MONTEREY BLVD & RIDGEWOOD AVE ,37.731615,-122.453289
5440,MONTEREY BLVD & RIDGEWOOD AVE ,37.731472,-122.453083
5441,MONTEREY BLVD & SAINT ELMO WAYE,37.730553,-122.460426
5442,MONTEREY BLVD & SAN ALESO AVE  ,37.732283,-122.46455
5443,MONTEREY BLVD & SAN JACINTO WAY,37.732033,-122.463965
5444,MONTEREY BLVD & VALDEZ AVE  ,37.731445,-122.455649
5445,MONTEREY BLVD & VALDEZ AVE  ,37.731267,-122.455832
5446,MT VERNON AVE & HOWTH ST   ,37.71969,-122.45177
5447,MT VERNON AVE & LOUISBURG ST   ,37.71937,-122.45094
5450,555 MYRA WAY  ,37.738182,-122.450712
5451,555 MYRA WAY  ,37.7382,-122.450884
5452,MYRA WAY & DALEWOOD WAY   ,37.736736,-122.453794
5453,MYRA WAY & MOLIMO DR  ,37.737816,-122.451491
5454,MYRA WAY & MOLIMO DR  ,37.737727,-122.451732
5455,MYRA WAY & OMAR WAY  ,37.739244,-122.450357
5456,MYRA WAY & OMAR WAY  ,37.739226,-122.450529
5457,NORTH POINT ST & DIVISADERO ST,37.80285,-122.44329
5458,NORTH POINT ST & HYDE ST  ,37.805803,-122.420226
5459,NORTH POINT ST & HYDE ST  ,37.805633,-122.420467
5460,NORTH POINT ST & JONES ST  ,37.806168,-122.417405
5461,NORTH POINT ST & JONES ST  ,37.806052,-122.417176
5462,NORTH POINT ST & KEARNY ST  ,37.80735,-122.4079
5464,NORTH POINT ST & LARKIN ST  ,37.80559,-122.42189
5465,NORTH POINT ST & LARKIN ST  ,37.805411,-122.422106
5466,NORTH POINT ST & MASON ST  ,37.80656,-122.41424
5467,NORTH POINT ST & MASON ST  ,37.806524,-122.41346
5468,NORTH POINT ST & POLK ST  ,37.805313,-122.423987
5469,NORTH POINT ST & POLK ST  ,37.805241,-122.423494
5470,NORTH POINT ST & STOCKTON ST  ,37.80704,-122.41038
5471,NORTH POINT ST & STOCKTON ST  ,37.80688,-122.410594
5472,NORTH POINT ST & VAN NESS AVE ,37.805063,-122.425237
5473,NAPLES ST & AMAZON AVE   ,37.7155,-122.4352
5474,NAPLES ST & ATHENS ST   ,37.712457,-122.437347
5475,NAPLES ST & BRUNSWICK ST  ,37.711797,-122.437989
5476,NAPLES ST & BRAZIL AVE   ,37.72251,-122.43002
5477,NAPLES ST & CURTIS ST   ,37.711083,-122.438504
5478,NAPLES ST & FRANCE AVE   ,37.71767,-122.43356
5479,NAPLES ST & GENEVA AVE   ,37.71445,-122.43597
5480,NAPLES ST & GENEVA AVE   ,37.714153,-122.436397
5481,NAPLES ST & ITALY AVE   ,37.7161,-122.43476
5482,NAPLES ST & ROLPH ST   ,37.713457,-122.436626
5483,NAPLES ST & ROLPH ST   ,37.713484,-122.436786
5484,NAPLES ST & RUSSIA AVE   ,37.7192,-122.43241
5485,NAPLES ST & SEVILLE ST  ,37.711672,-122.437897
5486,NEWCOMB AVE & KEITH ST   ,37.733152,-122.38598
5487,NEWCOMB AVE & KEITH ST   ,37.733,-122.386049
5488,NEWCOMB AVE & LA SALLE AVE   ,37.733044,-122.384858
5489,NEWCOMB AVE & LA SALLE AVE   ,37.733196,-122.385052
5490,NEWCOMB AVE & NEWHALL ST   ,37.736304,-122.391522
5491,NEWHALL ST & OAKDALE AVE   ,37.735796,-122.392175
5496,MCCULLOUGH RD & BUNKER RD,37.836443,-122.50214
5497,MCCULLOUGH RD & BUNKER RD   ,37.83612,-122.50241
5500,MIDDLE POINT RD & INNES AVE  ,37.734174,-122.379541
5501,MIDDLE POINT RD & WEST POINT RD,37.737011,-122.379321
5503,MIDDLE POINT RD & WEST POINT RD,37.735164,-122.379323
5504,MIDDLE POINT RD & WEST POINT RD,37.73502,-122.37947
5505,MENDELL ST & CARGO WAY   ,37.7437,-122.38317
5507,MENDELL ST & NEWHALL ST  ,37.74254,-122.3837
5508,MENDELL ST & NEWHALL ST  ,37.74253,-122.38393
5509,MENDELL ST/US POST OFFICE,37.74106,-122.38444
5510,MENDELL ST/OPPOSITE US POST OFFICE,37.741056,-122.384679
5511,V.A. HOSPITAL,37.781827,-122.504106
5513,126 MIRALOMA DR  ,37.737744,-122.461458
5514,MIRALOMA DR & BENGAL ALY  ,37.737869,-122.461309
5515,MIRALOMA DR & JUANITA WAY  ,37.739377,-122.460083
5516,MIRALOMA DR & JUANITA WAY   ,37.739199,-122.460026
5517,MIRALOMA DR & MARNE AVE  ,37.740082,-122.459224
5518,MIRALOMA DR & MARNE AVE   ,37.740207,-122.45927
5519,MIRALOMA DR & YERBA BUENA AVE ,37.735505,-122.460804
5528,MISSION ST & 1ST ST   ,37.78992,-122.39749
5529,MISSION ST & 2ND ST   ,37.78775,-122.40024
5530,MISSION ST & 2ND ST   ,37.78787,-122.39985
5531,MISSION ST & 3RD ST   ,37.78651,-122.40157
5532,MISSION ST & 3RD ST   ,37.78597,-122.40249
5533,MISSION ST & 4TH ST   ,37.78464,-122.40393
5534,MISSION ST & 4TH ST   ,37.78436,-122.40452
5535,MISSION ST & 5TH ST   ,37.782716,-122.406525
5536,MISSION ST & 5TH ST   ,37.782725,-122.40664
5537,MISSION ST & 6TH ST   ,37.78119,-122.40831
5538,MISSION ST & 6TH ST   ,37.78075,-122.4091
5539,MISSION ST & 7TH ST   ,37.77897,-122.41135
5540,MISSION ST & 8TH ST   ,37.77723,-122.41355
5541,MISSION ST & 8TH ST   ,37.7777,-122.41273
5542,MISSION ST & 9TH ST   ,37.77645,-122.41431
5543,MISSION ST & 9TH ST   ,37.77594,-122.41518
5544,MISSION ST & 11TH ST   ,37.774323,-122.41712
5545,MISSION ST & 11TH ST   ,37.774306,-122.417292
5546,MISSION ST & 13TH ST  ,37.77047,-122.41978
5547,MISSION ST & 14TH ST  ,37.76862,-122.41993
5548,MISSION ST & 14TH ST  ,37.7678,-122.42002
5551,MISSION ST & 16TH ST  ,37.765125,-122.419668
5552,MISSION ST & 16TH ST  ,37.765036,-122.419726
5553,MISSION ST & 18TH ST  ,37.762635,-122.419348
5554,MISSION ST & 18TH ST  ,37.761761,-122.419463
5557,MISSION ST & 20TH ST  ,37.75911,-122.41902
5558,MISSION ST & 20TH ST  ,37.75817,-122.41909
5561,MISSION ST & 22ND ST  ,37.75582,-122.41871
5562,MISSION ST & 22ND ST  ,37.75517,-122.4188
5565,MISSION ST & 24TH ST  ,37.752356,-122.418401
5566,MISSION ST & 24TH ST  ,37.751964,-122.418528
5567,MISSION ST & 26TH ST  ,37.74951,-122.4181
5568,MISSION ST & 26TH ST  ,37.74857,-122.41818
5571,MISSION ST & 30TH ST    ,37.742408,-122.421945
5572,MISSION ST & 30TH ST   ,37.742417,-122.421991
5573,4080 MISSION ST  ,37.73217,-122.428
5574,MISSION ST & ACTON ST   ,37.708808,-122.452578
5575,MISSION ST & ALLISON ST   ,37.71448,-122.44264
5577,MISSION ST & APPLETON AVE   ,37.738867,-122.423871
5578,MISSION ST & APPLETON AVE   ,37.73899,-122.42404
5579,MISSION ST & BEALE ST   ,37.791144,-122.395916
5580,MISSION ST & BOSWORTH ST  ,37.73334,-122.42682
5582,MISSION ST & BRAZIL AVE   ,37.72454,-122.43481
5583,MISSION ST & CORTLAND AVE   ,37.741052,-122.422759
5584,MISSION ST & CORTLAND AVE   ,37.741079,-122.422874
5585,MISSION ST & EVERGREEN ST   ,37.70741,-122.45653
5586,MISSION ST & EXCELSIOR AVE   ,37.726355,-122.43351
5588,MISSION ST & FLOURNOY ST   ,37.70682,-122.45906
5589,MISSION ST & FOOTE AVE   ,37.71285,-122.44462
5590,MISSION ST & FRANCIS ST   ,37.72635,-122.43365
5591,MISSION ST & FREMONT ST   ,37.79015,-122.39695
5592,MISSION ST & GENEVA AVE   ,37.716455,-122.441149
5593,MISSION ST & GENEVA AVE   ,37.716642,-122.440782
5594,MISSION ST & GOETHE ST   ,37.70736,-122.45708
5595,MISSION ST & GUTTENBERG ST  ,37.71251,-122.44475
5596,MISSION ST & HIGHLAND AVE  ,37.737448,-122.423963
5597,MISSION ST & HIGHLAND AVE  ,37.73706,-122.4242
5598,MISSION ST & ITALY AVE   ,37.71915,-122.439087
5599,MISSION ST & ITALY AVE   ,37.71865,-122.439259
5600,MISSION ST & LAWRENCE AVE   ,37.7095,-122.45087
5601,MISSION ST & LOWELL ST   ,37.711468,-122.446291
5602,MISSION ST & LOWELL ST   ,37.711432,-122.446486
5603,MISSION ST & MAIN ST   ,37.791965,-122.39493
5604,MISSION ST & MT VERNON AVE   ,37.7147,-122.44265
5605,MISSION ST & MURRAY ST   ,37.73404,-122.42592
5607,MISSION ST & NORTON ST   ,37.72431,-122.43519
5608,MISSION ST & OLIVER ST   ,37.70962,-122.45006
5609,MISSION ST & ONONDAGA AVE   ,37.721282,-122.437483
5610,MISSION ST & PERSIA AVE   ,37.72338,-122.43568
5613,MISSION ST & RICHLAND AVE  ,37.73591,-122.42442
5614,MISSION ST & RICHLAND AVE  ,37.73562,-122.4247
5615,MISSION ST & RUSSIA AVE   ,37.721469,-122.437117
5616,MISSION ST & RUTH ST   ,37.72281,-122.43633
5619,MISSION ST & SICKLES AVE   ,37.70866,-122.45332
5620,MISSION ST & SILVER AVE   ,37.728723,-122.43132
5621,MISSION ST & SILVER AVE   ,37.728723,-122.431354
5623,MISSION ST & SPEAR ST   ,37.79239,-122.39435
5624,MISSION ST & TRUMBULL ST  ,37.73066,-122.42927
5625,MISSION ST & TRUMBULL ST   ,37.73045,-122.42971
5626,MISSION ST & VALENCIA ST   ,37.74508,-122.4203
5627,MISSION ST & WHITTIER ST   ,37.71048,-122.44834
5628,MISSION ST & WHITTIER ST   ,37.71022,-122.44845
5630,MUNICH ST & CORDOVA AVE  ,37.71094,-122.435435
5631,MUNICH ST & GENEVA AVE   ,37.71293,-122.43295
5632,MUNICH ST & NAPLES ST  ,37.711155,-122.438241
5633,GALVEZ AVE & HORNE AVE,37.728795,-122.367027
5634,33 MOFFITT ST   ,37.736834,-122.432189
5638,MARKET ST & 1ST ST   ,37.790896,-122.399138
5639,MARKET ST & 2ND ST   ,37.789353,-122.401306
5640,MARKET ST & 3RD ST   ,37.787525,-122.403519
5641,MARKET ST & 3RD ST   ,37.787667,-122.403359
5642,MARKET ST & 4TH ST  ,37.786597,-122.404586
5643,MARKET ST & 4TH ST   ,37.785705,-122.405847
5644,MARKET ST & 4TH ST  ,37.78484,-122.406834
5645,MARKET ST & 5TH ST   ,37.783886,-122.408141
5646,MARKET ST & 5TH ST  ,37.783395,-122.408657
5647,MARKET ST & 6TH ST   ,37.782102,-122.4104
5648,MARKET ST & 6TH ST  ,37.78129,-122.411329
5649,MARKET ST & 7TH ST  ,37.77981,-122.413186
5650,MARKET ST & 7TH ST   ,37.780363,-122.412613
5651,MARKET ST & 8TH ST   ,37.778606,-122.414826
5652,MARKET ST & 9TH ST   ,37.77741,-122.41634
5653,MARKET ST & 15TH ST   ,37.76569,-122.4314
5654,MARKET ST & 16TH ST   ,37.76391,-122.43366
5655,MARKET ST & 5TH  ST   ,37.784082,-122.407992
5656,MARKET ST & 7TH ST   ,37.780568,-122.412441
5657,MARKET ST & BATTERY ST   ,37.79111,-122.399069
5658,MARKET ST & BEALE ST   ,37.792572,-122.397016
5659,MARKET ST & BUCHANAN ST   ,37.769786,-122.426149
5661,MARKET ST & CHURCH ST   ,37.767661,-122.428824
5662,MARKET ST & CHURCH ST   ,37.767589,-122.428801
5663,MARKET ST & CLAYTON ST  ,37.758409,-122.444055
5665,MARKET ST & CASTRO ST   ,37.76246,-122.435449
5667,MARKET ST & 17TH ST,37.76262,-122.43538
5668,MARKET ST & DOLORES ST   ,37.76888,-122.427103
5669,MARKET ST & DRUMM ST   ,37.793473,-122.396178
5671,MARKET ST & FRONT ST   ,37.79192,-122.39815
5672,MARKET ST & GOUGH ST   ,37.773269,-122.421768
5673,MARKET ST & GOUGH ST   ,37.772875,-122.421991
5674,MARKET ST & GRANT AVE   ,37.78639,-122.40516
5675,MARKET ST & GUERRERO ST   ,37.77057,-122.424971
5676,MARKET ST & HYDE ST   ,37.779105,-122.414379
5678,MARKET ST & KEARNY ST   ,37.78773,-122.40337
5680,MARKET ST & LARKIN ST   ,37.777598,-122.416236
5681,MARKET ST & LAGUNA ST   ,37.770953,-122.424666
5682,MARKET ST & MAIN ST   ,37.792984,-122.396627
5683,MARKET ST & MASON ST   ,37.78285,-122.40964
5684,MARKET ST & MONTGOMERY ST   ,37.78849,-122.40248
5685,MARKET ST & NEW MONTGOMERY ST  ,37.788613,-122.402163
5686,MARKET ST & NOE ST   ,37.764489,-122.432812
5687,MARKET ST & NOE ST   ,37.763958,-122.433323
5688,MARKET ST & POWELL ST   ,37.784474,-122.407544
5689,MARKET ST & SANSOME ST   ,37.790013,-122.400491
5690,MARKET ST & SANCHEZ ST   ,37.766185,-122.430707
5691,MARKET ST & SANCHEZ ST   ,37.765689,-122.43114
5692,MARKET ST & SOUTH VAN NESS AVE ,37.775056,-122.419321
5693,MARKET ST & STEUART ST   ,37.79426,-122.39491
5694,MARKET ST & STOCKTON ST   ,37.785777,-122.405859
5695,MARKET ST & TAYLOR ST   ,37.782316,-122.410228
5696,MARKET ST & VAN NESS AVE   ,37.775198,-122.419252
5697,MARVIEW WAY & PANORAMA DR   ,37.753618,-122.450541
5698,MOSCOW ST & BRAZIL AVE   ,37.72136,-122.42762
5699,MOSCOW ST & EXCELSIOR AVE   ,37.7229,-122.42647
5700,MOSCOW ST & FRANCE AVE   ,37.71669,-122.43113
5702,MOSCOW ST & ITALY AVE   ,37.71513,-122.4323
5703,MOSCOW ST & PERSIA AVE   ,37.719823,-122.42876
5704,MASONIC AVE & FREDERICK ST  ,37.767511,-122.444846
5705,MASONIC AVE & FULTON ST  ,37.7759,-122.44658
5706,MASONIC AVE & FULTON ST  ,37.77571,-122.44636
5709,MASONIC AVE & GEARY BLVD  ,37.78213,-122.44728
5710,MASONIC AVE & GEARY BLVD  ,37.782144,-122.447573
5711,MASONIC AVE & HAIGHT ST  ,37.770152,-122.445384
5712,MASONIC AVE & HAIGHT ST  ,37.77031,-122.44542
5713,MASONIC AVE & HAIGHT ST  ,37.770348,-122.445304
5714,MASONIC AVE & HAYES ST  ,37.77406,-122.446049
5715,MASONIC AVE & HAYES ST  ,37.77402,-122.44624
5716,MASONIC AVE & OAK ST  ,37.771963,-122.445625
5717,MASONIC AVE & OAK ST  ,37.77173,-122.44573
5718,MASONIC AVE & TURK ST  ,37.778771,-122.447
5719,MASONIC AVE & TURK ST  ,37.77876,-122.44716
5720,MITCHELL RD & BUNKER RD  ,37.83183,-122.53238
5721,MITCHELL RD & BUNKER RD  ,37.831876,-122.530858
5722,MITCHELL RD/VISITOR'S CENTER,37.83178,-122.53626
5726,METRO CHURCH STATION/DOWNTOWN,37.767194,-122.429168
5727,METRO CIVIC CENTER STATION/DOWNTN,37.778542,-122.414813
5728,METRO CASTRO STATION/DOWNTOWN,37.76262,-122.435231
5730,METRO FOREST HILL STATION/DOWNTOWN,37.748351,-122.458623
5731,METRO MONTGOMERY STATION/DOWNTOWN,37.788702,-122.401925
5732,NOE ST & 27TH ST  ,37.74668,-122.43148
5733,NOE ST & 27TH ST  ,37.74654,-122.43132
5734,NOE ST & 28TH ST  ,37.74519,-122.43134
5735,NOE ST & 28TH ST  ,37.74493,-122.43117
5736,NOE ST & 29TH ST  ,37.74354,-122.43117
5737,NOE ST & 29TH ST  ,37.7433,-122.43104
5738,NOE ST & 30TH ST  ,37.74201,-122.43101
5739,NORIEGA ST & 16TH AVE  ,37.75526,-122.47312
5741,NORIEGA ST & 24TH AVE  ,37.754042,-122.482773
5742,NORIEGA ST & 25TH AVE  ,37.753881,-122.483014
5744,NORIEGA ST & 27TH AVE  ,37.753782,-122.485168
5745,NORIEGA ST & 28TH AVE  ,37.753898,-122.485993
5746,NORIEGA ST & 29TH AVE  ,37.753692,-122.48731
5747,NORIEGA ST & 30TH AVE  ,37.753754,-122.489201
5748,NORIEGA ST & 31ST AVE  ,37.753593,-122.489453
5751,NORIEGA ST & 34TH AVE  ,37.753619,-122.492432
5752,NORIEGA ST & 34TH AVE  ,37.753458,-122.49265
5753,NORIEGA ST & 38TH AVE  ,37.75343,-122.496717
5754,NORIEGA ST & 39TH AVE  ,37.753215,-122.498012
5755,NORIEGA ST & 40TH AVE  ,37.753331,-122.498848
5756,NORIEGA ST & 41ST AVE  ,37.753125,-122.500166
5757,NORIEGA ST & 42ND AVE  ,37.753241,-122.501002
5758,NORIEGA ST & 43RD AVE  ,37.753026,-122.502309
5759,NORIEGA ST & 44TH AVE  ,37.75316,-122.503088
5761,NORIEGA ST & 46TH AVE  ,37.753034,-122.505712
5762,NORIEGA ST & 46TH AVE  ,37.752891,-122.505574
5763,NORIEGA ST & 48TH AVE  ,37.752934,-122.507854
5764,NORIEGA ST & SUNSET BLVD  ,37.753493,-122.495056
5765,NORIEGA ST & SUNSET BLVD  ,37.753395,-122.495274
5766,NORTHRIDGE RD & DORMITORY RD   ,37.73025,-122.37448
5767,NORTHRIDGE RD & HARBOR RD  ,37.730978,-122.377013
5768,NORTHRIDGE RD & INGALLS ST   ,37.73163,-122.37896
5769,NEVADA ST & CORTLAND AVE  ,37.74007,-122.41131
5770,NEVADA ST & CORTLAND AVE  ,37.73992,-122.41141
5772,OAK ST & FRANKLIN ST   ,37.775063,-122.42195
5774,OAKDALE AVE & BARNEVELD AVE ,37.741885,-122.403341
5775,OAKDALE AVE & BALDWIN CT   ,37.729384,-122.381367
5776,OAKDALE AVE & GRIFFITH ST   ,37.728223,-122.379318
5777,OAKDALE AVE & INGALLS ST   ,37.730152,-122.382684
5779,OCEAN AVE & APTOS AVE   ,37.728285,-122.467561
5780,OCEAN AVE & APTOS AVE   ,37.728383,-122.467871
5781,OCEAN AVE/BALBOA PARK BART STATION   ,37.722951,-122.446749
5782,OCEAN AVE & CAYUGA AVE  ,37.72367,-122.43867
5783,OCEAN AVE & CAYUGA AVE  ,37.72357,-122.43853
5784,OCEAN AVE/CCSF PEDESTRIAN BRIDGE,37.72304,-122.451448
5785,OCEAN AVE/CCSF PEDESTRIAN BRIDGE,37.722947,-122.450866
5786,OCEAN AVE & CERRITOS AVE   ,37.727252,-122.46676
5787,OCEAN AVE & DORADO TER  ,37.724957,-122.461059
5788,OCEAN AVE & FAIRFIELD WAY  ,37.726008,-122.464072
5790,OCEAN AVE & HOWTH ST  ,37.723022,-122.449784
5791,OCEAN AVE & HOWTH ST  ,37.72286,-122.44929
5792,OCEAN AVE & JUNIPERO SERRA BLVD,37.730952,-122.471686
5793,OCEAN AVE & JULES AVE  ,37.724955,-122.46139
5794,OCEAN AVE & LEE ST  ,37.723459,-122.453999
5795,OCEAN AVE & LEE ST  ,37.723326,-122.454446
5796,OCEAN AVE & MISSION ST  ,37.723941,-122.435731
5797,OCEAN AVE & MIRAMAR AVE  ,37.724387,-122.458077
5798,OCEAN AVE & MIRAMAR AVE  ,37.724262,-122.458306
5800,OCEAN AVE & OTSEGO AVE  ,37.72326,-122.44124
5801,OCEAN AVE & PERSIA AVE  ,37.72382,-122.43589
5804,OCEAN AVE & SAN JOSE AVE,37.723004,-122.444951
5805,OCEAN AVE & SAN JOSE ST  ,37.7229,-122.4444
5806,OCEAN AVE & SAN LEANDRO WAY   ,37.729989,-122.469097
5807,OCEAN AVE & SAN LEANDRO WAY   ,37.729945,-122.469475
5808,OCEAN AVE & VICTORIA ST  ,37.726029,-122.464337
5809,OCEAN AVE & WESTGATE DR ,37.727199,-122.46648
5810,O'FARRELL ST & GRANT AVE   ,37.786642,-122.405629
5811,O'FARRELL ST & HYDE ST  ,37.785369,-122.415774
5813,O'FARRELL ST & LARKIN ST  ,37.785093,-122.417998
5814,O'FARRELL ST & LEAVENWORTH ST ,37.785538,-122.414445
5817,O'FARRELL ST & POWELL ST  ,37.786331,-122.408128
5818,O'FARRELL ST & VAN NESS AVE  ,37.784657,-122.421415
5819,US101 OFFRAMP/SAUSALITO LATERAL RD,37.83592,-122.48383
5820,OAKPARK DR & FOREST KNOLLS DR ,37.755304,-122.455411
5821,OLYMPIA WAY & CLARENDON AVE  ,37.751494,-122.456224
5822,OLYMPIA WAY & DELLBROOK AVE   ,37.751343,-122.454391
5823,OLYMPIA WAY & DELLBROOK AVE  ,37.75128,-122.453073
5824,OLYMPIA WAY & PANORAMA DR  ,37.751298,-122.452271
5825,ORIZABA AVE & BROAD ST  ,37.713328,-122.462585
5826,ORTEGA ST & 9TH AVE  ,37.752778,-122.465631
5827,ORTEGA ST & 10TH AVE  ,37.752885,-122.466479
5828,ORTEGA ST & 48TH AVE  ,37.750981,-122.507497
5829,100 O'SHAUGHNESSY BLVD  ,37.744481,-122.450678
5830,O'SHAUGHNESSY BLVD & DEL VALE AVE,37.741385,-122.446027
5831,O'SHAUGHNESSY BLVD & DEL VALE AVE,37.741082,-122.44597
5832,O'SHAUGHNESSY BLVD & MALTA DR ,37.736611,-122.443301
5833,O'SHAUGHNESSY BLVD & MALTA DR ,37.736478,-122.443782
5834,O'SHAUGHNESSY BLVD & PORTOLA DR,37.744999,-122.451308
5835,150 OTIS ST  ,37.77073,-122.42031
5836,OTIS ST & 12TH ST   ,37.77281,-122.41917
5837,PACIFIC AVE & GRANT AVE  ,37.796984,-122.406735
5838,PACIFIC AVE & HYDE ST  ,37.79555,-122.4182
5839,PACIFIC AVE & HYDE ST  ,37.795381,-122.418395
5840,PACIFIC AVE & JONES ST  ,37.79596,-122.41491
5841,PACIFIC AVE & JONES ST  ,37.795791,-122.415105
5842,PACIFIC AVE & KEARNY ST  ,37.79717,-122.405222
5843,PACIFIC AVE & LARKIN ST  ,37.795328,-122.419863
5844,PACIFIC AVE & LARKIN ST  ,37.795149,-122.420035
5845,PACIFIC AVE & LEAVENWORTH ST  ,37.795755,-122.416549
5846,PACIFIC AVE & LEAVENWORTH ST  ,37.795586,-122.416744
5847,PACIFIC AVE & MASON ST  ,37.796378,-122.411619
5848,PACIFIC AVE & MASON ST  ,37.796209,-122.411814
5849,PACIFIC AVE & MONTGOMERY ST  ,37.797393,-122.403582
5850,PACIFIC AVE & POLK ST  ,37.795114,-122.42148
5851,PACIFIC AVE & POLK ST  ,37.794998,-122.42125
5852,PACIFIC AVE & POWELL ST  ,37.796556,-122.409991
5853,PACIFIC AVE & POWELL ST  ,37.796405,-122.410175
5854,PACIFIC AVE & SANSOME ST  ,37.797544,-122.402367
5856,PACIFIC AVE & TAYLOR ST  ,37.796165,-122.41327
5857,PACIFIC AVE & TAYLOR ST  ,37.795995,-122.413465
5858,PACIFIC AVE & VAN NESS AVE  ,37.794891,-122.423096
5859,PACIFIC AVE & VAN NESS AVE  ,37.794784,-122.422901
5863,PALOU AVE & 3RD ST  ,37.734019,-122.390825
5864,PALOU AVE & 3RD ST   ,37.73385,-122.390859
5865,PALOU AVE & CRESPI DR   ,37.727982,-122.380189
5866,PALOU AVE & HAWES ST   ,37.728679,-122.381425
5867,PALOU AVE & INDUSTRIAL ST   ,37.739529,-122.400547
5868,PALOU AVE & INGALLS ST   ,37.72942,-122.38273
5869,PALOU AVE & INGALLS ST   ,37.729733,-122.383578
5870,PALOU AVE & JENNINGS ST   ,37.730795,-122.385146
5871,PALOU AVE & JENNINGS ST   ,37.73082,-122.38542
5872,PALOU AVE & KEITH ST   ,37.731858,-122.387046
5873,PALOU AVE & KEITH ST   ,37.732055,-122.387367
5874,PALOU AVE & KEITH ST   ,37.731849,-122.38731
5875,PALOU AVE & LANE ST   ,37.732921,-122.38889
5876,PALOU AVE & LANE ST   ,37.732912,-122.389176
5877,PALOU AVE & NEWHALL ST   ,37.735029,-122.39292
5878,PALOU AVE & NEWHALL ST   ,37.735028,-122.392657
5879,PALOU AVE & PHELPS ST   ,37.7361,-122.394535
5880,PALOU AVE & PHELPS ST   ,37.7361,-122.39481
5881,PALOU AVE & QUINT ST   ,37.737163,-122.396367
5882,PALOU AVE & QUINT ST   ,37.737216,-122.396722
5883,PALOU AVE & RANKIN ST   ,37.73821,-122.39824
5884,PALOU AVE & RANKIN ST   ,37.73825,-122.39853
5885,PARNASSUS AVE & 4TH AVE  ,37.762727,-122.46074
5887,500 PARNASSUS AVE  ,37.763308,-122.458746
5889,PARNASSUS AVE & COLE ST  ,37.764905,-122.450083
5890,PARNASSUS AVE & COLE ST  ,37.764789,-122.449854
5891,PARNASSUS AVE & HILLWAY AVE  ,37.763807,-122.45697
5892,PARNASSUS AVE & HILLWAY AVE  ,37.763718,-122.456741
5893,PARNASSUS AVE & SHRADER ST  ,37.764771,-122.451103
5894,PARNASSUS AVE & SHRADER ST  ,37.764602,-122.451298
5895,PARNASSUS AVE & STANYAN ST  ,37.764548,-122.452879
5896,PARNASSUS AVE & STANYAN ST  ,37.764432,-122.45265
5897,PARNASSUS AVE & WILLARD ST  ,37.764352,-122.454529
5898,PARNASSUS AVE & WILLARD ST  ,37.764236,-122.4543
5899,PAUL AVE & BAY SHORE BLVD  ,37.723647,-122.400591
5900,PAUL AVE & CARR ST  ,37.722485,-122.396343
5901,PAUL AVE & CRANE ST  ,37.723289,-122.39908
5902,PAUL AVE & GOULD ST  ,37.723012,-122.397946
5903,PAUL AVE & GOULD ST  ,37.722726,-122.397385
5904,PAUL AVE & SAN BRUNO AVE   ,37.723879,-122.401576
5905,PAUL AVE & WHEAT ST  ,37.723397,-122.400202
5906,PERSIA AVE & ATHENS ST   ,37.720139,-122.429501
5907,PERSIA AVE & ATHENS ST   ,37.720112,-122.429467
5908,PERSIA AVE & BRAZIL AVE   ,37.717782,-122.422504
5909,PERSIA AVE & BRAZIL AVE   ,37.717791,-122.422779
5910,PERSIA AVE & MADRID ST   ,37.721638,-122.432673
5911,PERSIA AVE & MADRID ST   ,37.721612,-122.432959
5912,PERSIA AVE & MISSION ST   ,37.723147,-122.435845
5913,PERSIA AVE & MISSION ST   ,37.722941,-122.435765
5914,PERSIA AVE & MOSCOW ST   ,37.719728,-122.428676
5915,PERSIA AVE & MOSCOW ST   ,37.719702,-122.428963
5916,PERSIA AVE & NAPLES ST   ,37.72088,-122.43107
5917,PERSIA AVE & NAPLES ST   ,37.720853,-122.431356
5918,PERSIA AVE & PARIS ST   ,37.722406,-122.434276
5919,PERSIA AVE & PARIS ST   ,37.722379,-122.434563
5920,PERSIA AVE & PRAGUE ST   ,37.718961,-122.427062
5921,PERSIA AVE & PRAGUE ST   ,37.718934,-122.427348
5922,PHELAN AVE/CCSF (SOUTH ENTRANCE),37.7241,-122.45226
5923,PHELAN AVE/CCSF (SOUTH ENTRANCE),37.72385,-122.45243
5924,PHELAN AVE & JUDSON AVE  ,37.72762,-122.45229
5925,PHELAN AVE & JUDSON AVE  ,37.727867,-122.452453
5926,PHELAN LOOP,37.723629,-122.45267
5928,PHELAN AVE/CCSF (NORTH ENTRANCE),37.726038,-122.45227
5929,PHELAN AVE/CCSF (NORTH ENTRANCE),37.725539,-122.45243
5930,PHELPS ST & CARROLL AVE   ,37.7291,-122.40088
5931,PHELPS ST & CARROLL AVE   ,37.72912,-122.40101
5932,PHELPS ST & DONNER AVE   ,37.72847,-122.40144
5933,PHELPS ST & EGBERT AVE   ,37.72808,-122.40193
5934,PHELPS ST & JERROLD AVE   ,37.739757,-122.391267
5935,PHELPS ST & MCKINNON AVE   ,37.73808,-122.392987
5936,PHELPS ST & MCKINNON AVE   ,37.737866,-122.392964
5937,PHELPS ST & OAKDALE AVE   ,37.73684,-122.394099
5938,PHELPS ST & OAKDALE AVE   ,37.736635,-122.394088
5939,PHELPS ST & PALOU AVE   ,37.736216,-122.394672
5940,PHELPS ST & WILLIAMS AVE   ,37.73019,-122.39988
5941,PINE ST & BATTERY ST  ,37.792288,-122.400088
5942,PINE ST & DAVIS ST   ,37.79254,-122.39772
5943,PINE ST & FRONT ST  ,37.792484,-122.398518
5944,PINE ST & MONTGOMERY ST  ,37.791941,-122.402542
5946,PARK PRESIDIO BLVD & BALBOA ST,37.776948,-122.471975
5947,PARK PRESIDIO BLVD & BALBOA ST,37.77648,-122.47214
5948,PARK PRESIDIO & CALIFORNIA STREET,37.784336,-122.472642
5949,PARK PRESIDIO BLVD & CALIFORNIA ST,37.784497,-122.472528
5950,PARK PRESIDIO BLVD & FULTON ST,37.773219,-122.471653
5951,PARK PRESIDIO BLVD & FULTON ST,37.77327,-122.47191
5952,PARK PRESIDIO BLVD & GEARY BLVD,37.780571,-122.472412
5953,PARK PRESIDIO BLVD & GEARY BLVD,37.780776,-122.472217
5954,PLYMOUTH AVE & BROAD ST  ,37.71334,-122.45601
5955,GILMAN AVE & BILL WALSH WAY,37.717502,-122.38699
5958,PLYMOUTH AVE & GRAFTON AVE ,37.719881,-122.456015
5960,PLYMOUTH AVE & GRAFTON AVE  ,37.720113,-122.456221
5961,PLYMOUTH AVE & HOLLOWAY AVE  ,37.721934,-122.456232
5962,PLYMOUTH AVE & HOLLOWAY AVE  ,37.721764,-122.456038
5963,PLYMOUTH AVE & LAKEVIEW AVE  ,37.71817,-122.45606
5964,PLYMOUTH AVE & LAKEVIEW AVE  ,37.718454,-122.456209
5965,PLYMOUTH AVE & LOBOS ST  ,37.71501,-122.45613
5966,PLYMOUTH AVE & LOBOS ST  ,37.71484,-122.45605
5967,PLYMOUTH AVE & MANGELS AVE  ,37.73209,-122.45765
5968,PLYMOUTH AVE & MANGELS AVE  ,37.732239,-122.457768
5971,PLYMOUTH AVE & MONTANA ST  ,37.71655,-122.45605
5972,PLYMOUTH AVE & MONTANA ST  ,37.71643,-122.45613
5973,PLYMOUTH AVE & MONTEREY BLVD  ,37.73111,-122.45753
5974,PLYMOUTH AVE & OCEAN AVE  ,37.723772,-122.456049
5975,PLYMOUTH AVE & OCEAN AVE  ,37.723638,-122.456233
5976,PLYMOUTH AVE & SAGAMORE ST  ,37.7117,-122.45599
5977,PLYMOUTH AVE & SAGAMORE ST  ,37.71155,-122.45608
5978,PLYMOUTH AVE & THRIFT ST  ,37.71757,-122.45614
5979,PLYMOUTH AVE & THRIFT ST  ,37.71773,-122.45607
5980,PLYMOUTH AVE & YERBA BUENA AVE,37.73261,-122.45851
5981,PANORAMA DR & DELLBROOK AVE   ,37.753457,-122.452626
5982,PANORAMA DR & STARVIEW WAY  ,37.749264,-122.45203
5983,POLK ST & BROADWAY  ,37.796185,-122.421731
5984,POLK ST & BROADWAY  ,37.795676,-122.421812
5985,POLK ST & CALIFORNIA ST  ,37.790822,-122.420644
5986,POLK ST & CALIFORNIA ST  ,37.790644,-122.420793
5987,POLK ST & FRANCISCO ST  ,37.803653,-122.423231
5988,POLK ST & FRANCISCO ST  ,37.803475,-122.42338
5989,POLK ST & GREEN ST  ,37.797737,-122.42204
5990,POLK ST & LOMBARD ST  ,37.801628,-122.423014
5991,POLK ST & LOMBARD ST  ,37.801476,-122.422796
5992,POLK ST & NORTH POINT ST  ,37.805018,-122.4237
5993,POLK ST & O'FARRELL ST  ,37.785022,-122.419661
5994,POLK ST & PACIFIC AVE  ,37.795275,-122.421537
5995,POLK ST & PINE ST  ,37.789537,-122.420381
5996,POLK ST & PINE ST  ,37.789359,-122.42053
5997,POLK ST & POST ST  ,37.786914,-122.419889
5999,POLK ST & SACRAMENTO ST  ,37.791741,-122.420827
6000,POLK ST & SACRAMENTO ST   ,37.791929,-122.421057
6002,POLK ST & SUTTER ST  ,37.787824,-122.420221
6003,POLK ST & UNION ST  ,37.799004,-122.422292
6004,POLK ST & UNION ST  ,37.798826,-122.422441
6005,POLK ST & VALLEJO ST  ,37.796961,-122.422075
6006,POLK ST & WASHINGTON ST  ,37.793499,-122.421193
6007,POLK ST & WASHINGTON ST   ,37.793695,-122.421411
6008,6 PORTOLA DR  ,37.749951,-122.443483
6009,120 PORTOLA DR  ,37.74897,-122.44396
6010,PORTOLA DR & BURNETT AVE   ,37.747033,-122.44487
6011,PORTOLA DR & CLARENDON AVE  ,37.73955,-122.46527
6012,PORTOLA DR & CLIPPER ST,37.74715,-122.4442
6013,PORTOLA DR & DEL SUR AVE   ,37.741974,-122.455776
6014,PORTOLA DR & DORCHESTER WAY  ,37.7401,-122.46344
6015,PORTOLA DR & GLENVIEW DR  ,37.746462,-122.447917
6016,POST ST & LARKIN ST  ,37.78705,-122.41772
6017,POST ST & LEAVENWORTH ST  ,37.78745,-122.41459
6018,POST ST & LAGUNA ST  ,37.785774,-122.427675
6019,POST ST & MONTGOMERY ST   ,37.78901,-122.40238
6020,POST ST & OCTAVIA ST  ,37.785906,-122.426654
6021,POST ST & POLK ST  ,37.7868,-122.41956
6022,POST ST & POWELL ST  ,37.7883,-122.40793
6023,POST ST & TAYLOR ST  ,37.78788,-122.41132
6024,POST ST & VAN NESS AVE  ,37.786575,-122.421448
6026,POTRERO AVE & 16TH ST   ,37.766031,-122.407474
6027,POTRERO AVE & 16TH ST  ,37.765701,-122.407646
6028,POTRERO AVE & 17TH ST  ,37.764622,-122.407418
6029,POTRERO AVE & 17TH ST  ,37.764434,-122.407475
6034,POTRERO AVE & 21ST ST  ,37.75749,-122.4069
6037,POTRERO AVE & 23RD ST  ,37.754949,-122.406747
6038,POTRERO AVE & 24TH ST  ,37.753111,-122.406336
6039,POTRERO AVE & 24TH ST  ,37.752942,-122.406393
6040,POTRERO AVE & 25TH ST  ,37.75164,-122.40608
6043,POTRERO AVE & ALAMEDA ST  ,37.76844,-122.40792
6045,POWELL ST & BAY ST  ,37.805738,-122.411833
6046,POWELL ST & BEACH ST  ,37.808031,-122.412508
6047,POWELL ST & BUSH ST   ,37.790158,-122.408711
6048,POWELL ST & BUSH ST   ,37.790141,-122.408871
6049,POWELL ST & CALIFORNIA ST  ,37.7923,-122.409145
6050,POWELL ST & CALIFORNIA ST  ,37.792211,-122.409294
6051,POWELL ST & CLAY ST  ,37.793755,-122.409465
6052,POWELL ST & CLAY ST   ,37.793835,-122.409626
6054,POWELL ST & FILBERT ST  ,37.801232,-122.411124
6055,POWELL ST & FRANCISCO ST  ,37.804962,-122.411879
6056,POWELL ST & FRANCISCO ST  ,37.80481,-122.41165
6057,POWELL ST & GEARY BLVD  ,37.787464,-122.408322
6058,POWELL ST & GEARY BLVD  ,37.787267,-122.408128
6059,POWELL ST & JACKSON ST  ,37.79512,-122.409763
6060,POWELL ST & LOMBARD ST  ,37.802945,-122.411272
6061,POWELL ST & LOMBARD ST  ,37.802767,-122.411433
6063,POWELL ST & MARKET ST  ,37.784698,-122.407682
6064,POWELL ST & MARKET ST  ,37.784635,-122.407785
6065,POWELL ST & NORTH POINT ST  ,37.806666,-122.412038
6066,POWELL ST & NORTH POINT ST  ,37.806497,-122.412176
6067,POWELL ST & O'FARRELL ST  ,37.786509,-122.408139
6068,POWELL ST & O'FARRELL ST  ,37.786322,-122.407933
6069,POWELL ST & PINE ST   ,37.791095,-122.408905
6070,POWELL ST & PINE ST   ,37.791078,-122.409066
6071,POWELL ST & POST ST  ,37.788392,-122.408505
6072,POWELL ST & POST ST  ,37.788195,-122.408299
6073,POWELL ST & SACRAMENTO ST  ,37.79288,-122.409259
6074,POWELL ST & SACRAMENTO ST   ,37.79296,-122.409443
6075,POWELL ST & SUTTER ST  ,37.789132,-122.408493
6076,POWELL ST & SUTTER ST  ,37.789061,-122.408642
6080,PRAGUE ST & CORDOVA AVE  ,37.710164,-122.435069
6081,PRAGUE ST & DRAKE ST  ,37.709968,-122.436798
6082,PRAGUE ST & PERSIA AVE   ,37.71903,-122.42718
6083,PRAGUE ST & PERSIA AVE   ,37.71884,-122.42722
6084,PRAGUE ST & RUSSIA AVE   ,37.71756,-122.4282
6085,PRAGUE ST & RUSSIA AVE   ,37.71748,-122.42835
6086,PARKRIDGE DR & BURNETT AVE  ,37.75041,-122.44578
6087,PARKRIDGE DR & CRESTLINE DR,37.752351,-122.446084
6088,PRESIDIO AVE & CALIFORNIA ST  ,37.787381,-122.446736
6089,PRESIDIO AVE & CALIFORNIA ST  ,37.787319,-122.446851
6090,PRESIDIO AVE & CLAY ST  ,37.78918,-122.44726
6091,PRESIDIO AVE & CLAY ST  ,37.78897,-122.44704
6092,PRESIDIO AVE & GEARY BLVD  ,37.782706,-122.445796
6093,PRESIDIO AVE & GEARY BLVD  ,37.78267,-122.44593
6094,PRESIDIO AVE & JACKSON ST  ,37.790905,-122.447607
6095,PRESIDIO AVE & JACKSON ST  ,37.79071,-122.4474
6098,PRESIDIO AVE & SUTTER ST  ,37.784535,-122.446197
6099,PRESIDIO AVE & SUTTER ST  ,37.784392,-122.446289
6104,PRESIDIO BLVD & LETTERMAN DR   ,37.799043,-122.452537
6106,PRESIDIO BLVD & SIMONDS LOOP  ,37.796482,-122.451517
6107,PRESIDIO BLVD & SUMNER AVE   ,37.796705,-122.4517
6109,POINT LOBOS AVE & 42ND AVE  ,37.779651,-122.502855
6111,POINT LOBOS AVE & 44TH AVE  ,37.779837,-122.50501
6112,PORTOLA DR & GLENVIEW DR  ,37.74636,-122.44764
6113,PORTOLA DR & LAGUNA HONDA BLVD ,37.743098,-122.455261
6114,PORTOLA DR & LAGUNA HONDA BLVD ,37.74287,-122.45524
6115,PORTOLA DR AT MCATEER HS,37.74593,-122.44957
6116,PORTOLA DR & SAN PABLO AVE  ,37.7404,-122.46107
6117,PORTOLA DR & SAN PABLO AVE   ,37.74023,-122.46083
6118,PORTOLA DR & REX AVE   ,37.740885,-122.457517
6119,POTRERO AVE AT SF GENERAL HOSPITAL,37.755413,-122.406472
6120,PORTOLA DR & SAN LORENZO AVE  ,37.73993,-122.46368
6121,PORTOLA DR & TERESITA BLVD   ,37.74532,-122.4519
6122,PORTOLA DR & WAITHMAN WAY   ,37.741626,-122.456521
6123,PORTOLA DR & WOODSIDE AVE   ,37.74533,-122.45238
6124,POST ST & GOUGH ST  ,37.786174,-122.424761
6125,POST ST & GRANT AVE   ,37.78855,-122.40599
6126,POST ST & HYDE ST  ,37.78724,-122.41626
6127,POST ST & JONES ST  ,37.78765,-122.41295
6129,POINT LOBOS AVE & 46TH AVE  ,37.780041,-122.50744
6135,QUINTARA ST & 12TH AVE  ,37.749039,-122.468369
6136,QUINTARA ST & 12TH AVE  ,37.74887,-122.468563
6137,QUINTARA ST & 16TH AVE  ,37.74872,-122.47298
6139,QUINTARA ST & 17TH AVE  ,37.74867,-122.47408
6140,QUINTARA ST & 19TH AVE  ,37.74871,-122.47584
6141,QUINTARA ST & 19TH AVE  ,37.74858,-122.47622
6142,QUINTARA ST & 22ND AVE  ,37.74855,-122.47917
6143,QUINTARA ST & 22ND AVE  ,37.74845,-122.47943
6144,QUINTARA ST & 24TH AVE  ,37.74846,-122.48131
6145,QUINTARA ST & 24TH AVE  ,37.74836,-122.48157
6146,QUINTARA ST & 26TH AVE  ,37.74838,-122.48345
6147,QUINTARA ST & 26TH AVE  ,37.748277,-122.483469
6148,QUINTARA ST & 27TH AVE  ,37.74832,-122.48458
6149,QUINTARA ST & 27TH AVE  ,37.74822,-122.48477
6150,QUINTARA ST & 28TH AVE  ,37.74827,-122.4856
6151,QUINTARA ST & 28TH AVE  ,37.74816,-122.48586
6152,QUINTARA ST & 29TH AVE  ,37.74822,-122.48666
6153,QUINTARA ST & 29TH AVE  ,37.74812,-122.48692
6154,QUINTARA ST & 31ST AVE  ,37.74814,-122.48881
6155,QUINTARA ST & 31ST AVE  ,37.748,-122.48905
6156,QUINTARA ST & 33RD AVE  ,37.74805,-122.49095
6157,QUINTARA ST & 33RD AVE  ,37.74791,-122.49121
6158,QUINTARA ST & 35TH AVE  ,37.74796,-122.4931
6159,QUINTARA ST & 35TH AVE  ,37.74783,-122.49334
6160,QUINTARA ST & 36TH AVE  ,37.747765,-122.494399
6161,QUINTARA ST & 39TH AVE  ,37.74763,-122.49763
6162,QUINTARA ST & 41ST AVE  ,37.74768,-122.49952
6163,QUINTARA ST & 41ST AVE  ,37.74754,-122.49981
6165,QUINTARA ST & 44TH AVE  ,37.74742,-122.50304
6166,QUINTARA ST & 46TH AVE  ,37.74743,-122.50487
6167,QUINTARA ST & 48TH AVE  ,37.74734,-122.507
6168,QUINTARA ST & CRAGMONT AVE  ,37.749093,-122.467681
6169,QUINTARA ST & CRAGMONT AVE  ,37.748977,-122.467051
6170,QUINTARA ST & FUNSTON AVE  ,37.748985,-122.469423
6171,QUINTARA ST & FUNSTON AVE  ,37.748834,-122.46964
6172,RANDOLPH ST & ARCH ST  ,37.714342,-122.466982
6173,RANDOLPH ST & ARCH ST  ,37.714201,-122.467218
6174,RANDOLPH ST & BRIGHT ST  ,37.714348,-122.463392
6175,RANDOLPH ST & BRIGHT ST  ,37.714224,-122.463675
6177,RANDALL ST & WHITNEY ST  ,37.7397,-122.42757
6181,RICHARDSON AVE & FRANCISCO ST ,37.800408,-122.447447
6182,RICHARDSON AVE & FRANCISCO ST ,37.800328,-122.446954
6184,REDDY ST & THORNTON AVE  ,37.73098,-122.39504
6185,REDDY ST & WILLIAMS AVE  ,37.72979,-122.3954
6186,176 RHODE ISLAND ST   ,37.75617,-122.401842
6187,RHODE ISLAND ST & 15TH ST  ,37.767466,-122.402912
6188,RHODE ISLAND ST & 15TH ST  ,37.767315,-122.402729
6189,RHODE ISLAND ST & 16TH ST  ,37.766324,-122.402627
6190,RHODE ISLAND ST & 16TH ST  ,37.766164,-122.402799
6191,RHODE ISLAND ST & 17TH ST  ,37.76487,-122.402673
6192,RHODE ISLAND ST & 18TH ST  ,37.761988,-122.4024
6193,RHODE ISLAND ST & 19TH ST  ,37.760953,-122.402298
6195,RHODE ISLAND ST & 20TH ST  ,37.759436,-122.402161
6196,RHODE ISLAND ST & 22ND ST  ,37.756884,-122.401911
6197,RHODE ISLAND ST & 23RD ST  ,37.754332,-122.401672
6198,RHODE ISLAND ST & 24TH ST  ,37.753386,-122.401569
6199,RHODE ISLAND ST & 25TH ST  ,37.75211,-122.401467
6200,RHODE ISLAND ST & 26TH ST  ,37.750727,-122.401342
6201,RHODE ISLAND ST & ALAMEDA ST  ,37.768742,-122.403038
6202,RHODE ISLAND ST & ALAMEDA ST  ,37.768573,-122.402843
6203,RHODE ISLAND ST & MARIPOSA ST ,37.763264,-122.402525
6204,RHODE ISLAND ST & SOUTHERN HEIGHTS AVE,37.758499,-122.40207
6208,RIPLEY ST & ALABAMA ST  ,37.744368,-122.410465
6209,RIPLEY ST & ALABAMA ST  ,37.74428,-122.41051
6210,RIPLEY ST & FOLSOM ST  ,37.74418,-122.41315
6211,RIPLEY ST & FOLSOM ST  ,37.74414,-122.41301
6212,ROUSSEAU ST & CAYUGA AVE   ,37.731399,-122.429647
6213,RIGHT OF WAY/18TH ST  ,37.761192,-122.428184
6214,RIGHT OF WAY/20TH ST  ,37.758264,-122.427924
6215,RIGHT OF WAY/20TH ST  ,37.758229,-122.427795
6216,RIGHT OF WAY/21ST ST  ,37.756643,-122.426922
6217,RIGHT OF WAY/21ST ST  ,37.756436,-122.426822
6218,RIGHT OF WAY/22ND ST  ,37.754607,-122.42775
6219,RIGHT OF WAY/EUCALYPTUS DR  ,37.73119,-122.47435
6220,RIGHT OF WAY/EUCALYPTUS DR  ,37.730987,-122.474366
6221,RIGHT OF WAY/LIBERTY ST  ,37.757451,-122.426999
6222,RIGHT OF WAY/LIBERTY ST  ,37.757239,-122.426867
6223,RIGHT OF WAY/OCEAN AVE   ,37.732022,-122.473719
6224,RIGHT OF WAY/OCEAN AVE   ,37.731808,-122.473815
6225,WEST PORTAL AVE & SLOAT BLVD  ,37.734298,-122.47189
6226,WEST PORTAL AVE & SLOAT BLVD  ,37.734299,-122.471956
6228,REPOSA WAY & MYRA WAY   ,37.740198,-122.450609
6229,REPOSA WAY & TERESITA BLVD   ,37.740823,-122.449361
6230,414 ROOSEVELT WAY  ,37.764495,-122.443299
6231,415 ROOSEVELT WAY  ,37.764495,-122.443138
6232,ROOSEVELT WAY & 14TH ST  ,37.767162,-122.437225
6233,ROOSEVELT WAY & 15TH ST   ,37.766493,-122.439505
6234,ROOSEVELT WAY & 17TH ST  ,37.76197,-122.445373
6235,ROOSEVELT WAY & 17TH ST  ,37.761952,-122.445213
6236,ROOSEVELT WAY & CLIFFORD TER ,37.76373,-122.44291
6237,ROOSEVELT WAY & CLIFFORD TER  ,37.76373,-122.44301
6238,ROOSEVELT WAY & LOWER TER   ,37.76342,-122.4437
6239,ROOSEVELT WAY & LOWER TER  ,37.763237,-122.443792
6240,ROOSEVELT WAY & MUSEUM WAY   ,37.76536,-122.44102
6241,RUSSIA AVE & MOSCOW ST   ,37.71814,-122.42985
6242,RUSSIA AVE & MOSCOW ST   ,37.71817,-122.43012
6243,RUTLAND ST & LELAND AVE  ,37.712451,-122.407389
6245,RIVERA ST & 37TH AVE  ,37.74585,-122.49536
6246,RIVERA ST & 46TH AVE  ,37.74543,-122.50504
6247,RIVERA ST & 48TH AVE  ,37.74535,-122.5067
6248,REVERE AVE & 3RD ST   ,37.73241,-122.39135
6249,REVERE AVE & 3RD ST   ,37.7322,-122.39123
6250,REVERE AVE & INGALLS ST   ,37.7285,-122.38469
6251,REVERE AVE & JENNINGS ST   ,37.72953,-122.3863
6252,REVERE AVE & JENNINGS ST   ,37.72956,-122.38656
6253,REVERE AVE & LANE ST   ,37.73165,-122.39004
6254,REVERE AVE & LANE ST   ,37.73169,-122.39029
6257,SAN JOSE AVE & FARALLONES ST   ,37.714153,-122.452148
6259,SAN JOSE AVE & FARALLONES ST   ,37.71407,-122.45208
6260,SAN JOSE AVE & GENEVA AVE   ,37.720827,-122.446474
6262,SAN JOSE AVE & GENEVA AVE  ,37.720007,-122.447184
6263,SAN JOSE AVE & GENEVA AVE   ,37.720649,-122.446738
6265,SAN JOSE AVE & LAKEVIEW AVE   ,37.71633,-122.450368
6266,SAN JOSE AVE & LAKEVIEW AVE   ,37.716083,-122.450435
6268,SAN JOSE AVE & MT VERNON AVE   ,37.718284,-122.448593
6269,SAN JOSE AVE & NIAGRA AVE   ,37.719507,-122.447459
6274,SAN JOSE AVE & OCEAN AVE  ,37.723085,-122.444699
6275,SAN JOSE AVE & OCEAN AVE  ,37.722862,-122.44479
6276,SAN JOSE AVE & OCEAN AVE  ,37.722933,-122.444894
6277,SAN JOSE AVE & RANDALL ST   ,37.739741,-122.424157
6280,SAN JOSE AVE & RANDALL ST   ,37.739385,-122.42432
6283,SAN JOSE AVE & SICKLES AVE   ,37.7112,-122.455945
6284,SAN JOSE AVE & SANTA ROSA AVE  ,37.728991,-122.439922
6285,SAN JOSE AVE & SANTA ROSA AVE  ,37.728996,-122.440016
6287,SAN JOSE AVE & SANTA YNEZ AVE  ,37.725877,-122.442359
6288,SAN JOSE AVE & SANTA YNEZ AVE  ,37.725681,-122.442442
6290,SACRAMENTO ST & BATTERY ST  ,37.79418,-122.400282
6291,SACRAMENTO ST & BUCHANAN ST  ,37.790316,-122.430617
6292,SACRAMENTO ST & BUCHANAN ST  ,37.790194,-122.430855
6293,SACRAMENTO ST & CHERRY ST  ,37.786908,-122.45656
6294,SACRAMENTO ST & DAVIS ST  ,37.7945,-122.39761
6295,SACRAMENTO ST & FILLMORE ST  ,37.789861,-122.434114
6296,SACRAMENTO ST & FILLMORE ST  ,37.789816,-122.433988
6297,SACRAMENTO ST & FRANKLIN ST  ,37.79115,-122.424037
6298,SACRAMENTO ST & GOUGH ST  ,37.790887,-122.426132
6299,SACRAMENTO ST & GRANT AVE  ,37.793411,-122.406306
6300,SACRAMENTO ST & HYDE ST  ,37.79197,-122.417445
6301,SACRAMENTO ST & JONES ST  ,37.792396,-122.414161
6302,SACRAMENTO ST & KEARNY ST  ,37.793575,-122.404846
6303,SACRAMENTO ST & LARKIN ST  ,37.791721,-122.419531
6304,SACRAMENTO ST & LEAVENWORTH ST,37.792183,-122.415755
6305,SACRAMENTO ST & LAGUNA ST  ,37.790526,-122.42896
6306,SACRAMENTO ST & LAGUNA ST  ,37.79036,-122.429185
6307,SACRAMENTO ST & MONTGOMERY ST ,37.793842,-122.403068
6309,SACRAMENTO ST & OCTAVIA ST   ,37.790709,-122.427502
6310,SACRAMENTO ST & OCTAVIA ST  ,37.79068,-122.427138
6311,SACRAMENTO ST & POLK ST  ,37.791516,-122.421146
6312,SACRAMENTO ST & POWELL ST  ,37.793043,-122.409116
6313,SACRAMENTO ST & PRESIDIO AVE  ,37.788095,-122.447011
6314,SACRAMENTO ST & SANSOME ST  ,37.79403,-122.401551
6315,SACRAMENTO ST & SPROULE LN  ,37.792673,-122.411864
6316,SACRAMENTO ST & STOCKTON ST  ,37.793236,-122.407591
6317,SACRAMENTO ST & VAN NESS AVE  ,37.791378,-122.422286
6318,SACRAMENTO ST & WALNUT ST   ,37.788026,-122.447979
6319,SACRAMENTO ST & WEBSTER ST  ,37.790107,-122.432226
6320,SACRAMENTO ST & WEBSTER ST  ,37.789987,-122.4325
6321,274 SAGAMORE ST  ,37.71144,-122.46156
6322,SAGAMORE ST & CAPITOL AVE  ,37.71149,-122.45888
6323,SAGAMORE ST & CAPITOL AVE  ,37.71129,-122.45913
6324,SAGAMORE ST & ORIZABA AVE  ,37.71128,-122.46198
6327,SANSOME ST & CALIFORNIA ST  ,37.79318,-122.40122
6328,SANSOME ST & CLAY ST  ,37.79447,-122.40149
6329,SANSOME ST & FILBERT ST  ,37.80234,-122.40294
6331,SANSOME ST & PACIFIC AVE  ,37.79778,-122.40202
6332,SANSOME ST & PINE ST  ,37.79202,-122.40086
6333,SANSOME ST & SACRAMENTO ST  ,37.794055,-122.401314
6334,SANSOME ST & SUTTER ST  ,37.79034,-122.40061
6336,SANSOME ST & VALLEJO ST  ,37.79967,-122.4024
6337,SANSOME ST & WASHINGTON ST  ,37.79606,-122.40166
6339,SANTOS ST & BROOKDALE AVE   ,37.711696,-122.418864
6340,SANTOS ST & BROOKDALE AVE  ,37.711857,-122.418681
6343,SANTOS ST & GENEVA AVE   ,37.70864,-122.41987
6344,SANTOS ST & GENEVA AVE   ,37.7085,-122.42008
6345,SANTOS ST & VELASCO AVE   ,37.709867,-122.4193
6346,SANTOS ST & VELASCO AVE   ,37.710028,-122.419426
6348,3800 SAN BRUNO AVE   ,37.71479,-122.40057
6350,3801 SAN BRUNO AVE  ,37.71467,-122.40046
6352,SAN BRUNO AVE & ARLETA AVE  ,37.712289,-122.402419
6355,SAN BRUNO AVE & BACON ST  ,37.72797,-122.40367
6357,SAN BRUNO AVE & BACON ST   ,37.72752,-122.403647
6358,SAN BRUNO AVE & DWIGHT ST  ,37.72408,-122.4022
6360,SAN BRUNO AVE & MANSELL ST   ,37.721478,-122.400948
6361,SAN BRUNO AVE & MANSELL ST  ,37.721604,-122.401223
6362,SAN BRUNO AVE & PAUL AVE   ,37.72418,-122.4021
6363,SAN BRUNO AVE & PAUL AVE  ,37.723647,-122.401863
6364,SAN BRUNO AVE & SILVER AVE   ,37.732384,-122.405523
6365,SAN BRUNO AVE & SILVER AVE   ,37.73217,-122.40556
6366,SAN BRUNO AVE & SOMERSET ST  ,37.71384,-122.40213
6367,SAN BRUNO AVE & THORNTON AVE   ,37.73026,-122.40462
6369,SAN BRUNO AVE & WARD ST   ,37.71905,-122.40049
6371,SAN BRUNO AVE & WILDE AVE  ,37.71672,-122.39993
6373,SAN BRUNO AVE & WAYLAND ST   ,37.72637,-122.40301
6374,SANTA CLARA AVE & MONTEREY BLVD,37.733202,-122.465798
6375,SANTA CLARA AVE & SAINT FRANCIS BLVD,37.734861,-122.466154
6376,SCOTT ST & NORTH POINT ST  ,37.80308,-122.44183
6382,SCHWERIN ST & GARRISON AVE   ,37.70931,-122.412
6383,SCHWERIN ST & GARRISON AVE  ,37.70906,-122.41198
6384,SCHWERIN ST & GENEVA AVE   ,37.706528,-122.413359
6385,SCHWERIN ST & MACDONALD AVE   ,37.70709,-122.41293
6386,SCHWERIN ST & SUNNYDALE AVE   ,37.71049,-122.41136
6387,SCHWERIN ST & SUNNYDALE AVE   ,37.71036,-122.41151
6388,SCHWERIN ST & VELASCO AVE   ,37.70826,-122.41234
6389,SCHWERIN ST & VELASCO AVE   ,37.70813,-122.41254
6391,SICKLES AVE & ALEMANY BLVD   ,37.71029,-122.45478
6393,SILVER AVE & ALEMANY BLVD   ,37.729794,-122.433256
6394,SILVER AVE & ALEMANY BLVD   ,37.729589,-122.433175
6395,SILVER AVE & AUGUSTA ST   ,37.734586,-122.402188
6396,SILVER AVE & BOYLSTON ST   ,37.730913,-122.410839
6397,SILVER AVE & BAY SHORE BLVD   ,37.733052,-122.404365
6398,SILVER AVE & CAMBRIDGE ST  ,37.729131,-122.419396
6399,SILVER AVE & CAMBRIDGE ST  ,37.729015,-122.419167
6400,SILVER AVE & CHARTER OAK AVE   ,37.733275,-122.404297
6401,SILVER AVE & CONGDON ST  ,37.728713,-122.425868
6402,SILVER AVE & CONGDON ST  ,37.728561,-122.426085
6404,SILVER AVE & DARTMOUTH ST   ,37.729932,-122.412981
6405,SILVER AVE & DARTMOUTH ST   ,37.729843,-122.413611
6406,SILVER AVE & GAMBIER ST  ,37.7289,-122.422569
6407,SILVER AVE & GAMBIER ST  ,37.728748,-122.422786
6408,SILVER AVE & HOLYOKE ST   ,37.730967,-122.410197
6410,SILVER AVE & LISBON ST  ,37.728473,-122.428789
6411,SILVER AVE & MERRILL ST   ,37.7315,-122.40885
6412,SILVER AVE & MERRILL ST   ,37.731332,-122.408994
6413,SILVER AVE & MISSION ST   ,37.728901,-122.4314
6414,SILVER AVE & MISSION ST   ,37.728776,-122.431114
6415,SILVER AVE & MISSION ST  ,37.72866,-122.431217
6416,SILVER AVE & PALOU AVE   ,37.7371,-122.39663
6417,SILVER AVE & PRINCETON ST   ,37.729014,-122.416109
6418,SILVER AVE & PRINCETON ST   ,37.728827,-122.416269
6419,SILVER AVE & REVERE AVE   ,37.736316,-122.398624
6420,SILVER AVE & REVERE AVE   ,37.736361,-122.398888
6421,SILVER AVE & SAN BRUNO AVE   ,37.73241,-122.405672
6422,SILVER AVE & SAN BRUNO AVE   ,37.732446,-122.405683
6424,SILVER AVE & TOPEKA AVE   ,37.735273,-122.401065
6425,STARR KING WAY & GOUGH ST  ,37.78505,-122.424085
6426,SKYVIEW WAY & AQUAVISTA WAY  ,37.751218,-122.450094
6427,SKYVIEW WAY & CITY VIEW WAY  ,37.748925,-122.450449
6428,SKYVIEW WAY & GLENVIEW DR  ,37.749942,-122.450335
6429,SKYLINE BLVD & ZOO RD   ,37.728222,-122.501695
6430,SKYLINE BLVD & HARDING RD  ,37.726758,-122.50253
6431,SKYLINE BLVD & HARDING RD  ,37.726392,-122.502449
6432,SKYLINE BLVD & LAKE MERCED BLVD,37.731149,-122.499223
6433,SKYLINE BLVD & SLOAT BLVD  ,37.733542,-122.496636
6434,SKYLINE BLVD & SLOAT BLVD   ,37.733595,-122.496842
6435,SLOAT BLVD & 19TH AVE  ,37.73478,-122.474493
6436,SLOAT BLVD & 19TH AVE  ,37.734494,-122.475272
6437,SLOAT BLVD & 21ST AVE  ,37.734752,-122.47738
6438,SLOAT BLVD & 21ST AVE  ,37.734485,-122.477242
6439,SLOAT BLVD & 23RD AVE  ,37.734404,-122.479625
6440,SLOAT BLVD & 26TH AVE  ,37.734287,-122.48218
6441,SLOAT BLVD & 34TH AVE  ,37.734141,-122.491607
6442,SLOAT BLVD & 36TH AVE  ,37.734042,-122.493646
6443,SLOAT BLVD & 36TH AVE  ,37.73378,-122.49345
6444,SLOAT BLVD & 37TH AVE  ,37.73373,-122.494597
6445,SLOAT BLVD & 39TH AVE  ,37.733907,-122.496773
6446,SLOAT BLVD & 41ST AVE   ,37.734567,-122.499294
6447,SLOAT BLVD & 41ST AVE   ,37.73413,-122.498961
6448,SLOAT BLVD & 43RD AVE   ,37.735387,-122.501345
6449,SLOAT BLVD & 43RD AVE   ,37.735012,-122.500749
6450,SLOAT BLVD & 45TH AVE  ,37.7356,-122.503407
6451,SLOAT BLVD & 45TH AVE  ,37.735368,-122.502777
6453,SLOAT BLVD & 47TH AVE  ,37.735528,-122.505354
6454,SLOAT BLVD & CLEARFIELD DR  ,37.733847,-122.491595
6455,SLOAT BLVD & CONSTANSO WAY  ,37.73424,-122.489259
6456,SLOAT BLVD & CRESTLAKE DR  ,37.734653,-122.480061
6457,SLOAT BLVD & EL MIRASOL PL  ,37.734375,-122.486235
6458,SLOAT BLVD & EVERGLADE DR   ,37.733955,-122.489683
6459,SLOAT BLVD & FOREST VIEW DR  ,37.734215,-122.483944
6460,SLOAT BLVD & PARAISO PL  ,37.734555,-122.482237
6461,SLOAT BLVD & SKYLINE BLVD  ,37.733702,-122.496819
6462,SLOAT BLVD & SYLVAN DR  ,37.734125,-122.485834
6463,SLOAT BLVD & VALE AVE  ,37.734483,-122.483955
6464,SLOAT BLVD & WEST PORTAL AVE  ,37.73478,-122.47187
6465,SLOAT BLVD & WEST PORTAL AVE  ,37.734575,-122.471881
6467,SANTIAGO ST & 14TH AVE  ,37.74508,-122.47049
6468,SANTIAGO ST & 17TH AVE  ,37.74507,-122.4735
6469,SOUTH HILL BLVD & CHICAGO WAY  ,37.710708,-122.431507
6470,SOUTH HILL BLVD & PRAGUE ST   ,37.712153,-122.432183
6471,SOUTH HILL BLVD & ROLPH ST   ,37.711234,-122.431771
6472,SOUTH HILL BLVD & ROLPH ST   ,37.711698,-122.432103
6473,SOUTH VAN NESS AVE & MISSION ST,37.773316,-122.418622
6475,SPEAR ST & MARKET ST   ,37.793589,-122.395548
6478,STANYAN ST & FREDERICK ST  ,37.766449,-122.452914
6479,STANYAN ST & FULTON ST  ,37.774604,-122.454714
6480,STANYAN ST & HAYES ST  ,37.772819,-122.454186
6481,STANYAN ST & HAYES ST  ,37.772766,-122.454335
6482,STANYAN ST & OAK ST  ,37.770856,-122.453785
6483,STANYAN ST & WALLER ST  ,37.768331,-122.453464
6484,ST CHARLES AVE & ALEMANY BLVD ,37.71028,-122.46933
6485,ST CHARLES AVE & BELLE AVE  ,37.70874,-122.46932
6486,STEINER ST & CALIFORNIA ST  ,37.788844,-122.435568
6487,STEINER ST & GREEN ST  ,37.795859,-122.436863
6488,STEINER ST & GREEN ST   ,37.795937,-122.437037
6489,STEINER ST & SACRAMENTO ST  ,37.789329,-122.435556
6490,STEINER ST & UNION ST  ,37.796785,-122.437054
6491,STEINER ST & UNION ST  ,37.796627,-122.437137
6492,STEINER ST & VALLEJO ST  ,37.794911,-122.436669
6493,STEINER ST & VALLEJO ST   ,37.794887,-122.436789
6494,STEINER ST & WASHINGTON ST  ,37.791449,-122.436132
6497,STEUART ST & MISSION ST   ,37.794141,-122.394252
6498,STEUART ST & MISSION ST  ,37.793249,-122.393278
6501,STEUART ST & MARKET ST   ,37.794427,-122.39455
6503,WEST PORTAL/SLOAT/ST FRANCIS CIRCLE,37.734807,-122.471618
6504,SAINT FRANCIS BLVD & SANTA CLARA AVE,37.734861,-122.46636
6505,SAINT FRANCIS BLVD & SANTA ANA AVE,37.734941,-122.467849
6506,SAINT FRANCIS BLVD & SANTA ANA AVE,37.73479,-122.468067
6507,SAINT FRANCIS BLVD & SAN FERNANDO WAY,37.734861,-122.469579
6508,SAINT FRANCIS BLVD & SAN FERNANDO WAY,37.734709,-122.469797
6509,STILL ST & LYELL ST  ,37.731837,-122.431319
6511,STOCKTON ST & CLAY ST   ,37.793736,-122.407757
6512,STOCKTON ST & COLUMBUS AVE  ,37.799215,-122.408878
6513,STOCKTON ST & COLUMBUS AVE  ,37.799277,-122.40905
6515,STOCKTON ST & FILBERT ST  ,37.801419,-122.409461
6517,STOCKTON ST & GREENWICH ST  ,37.802347,-122.409656
6518,STOCKTON ST & GREENWICH ST  ,37.80221,-122.4095
6519,STOCKTON ST & LOMBARD ST  ,37.80313,-122.40969
6520,STOCKTON ST & PACIFIC AVE   ,37.796244,-122.40826
6521,STOCKTON ST & PACIFIC AVE   ,37.797189,-122.408604
6522,STOCKTON ST & SACRAMENTO ST   ,37.793433,-122.407861
6523,STOCKTON ST & SUTTER ST  ,37.789471,-122.406946
6524,STOCKTON ST & SUTTER ST  ,37.789489,-122.40706
6525,STOCKTON ST & UNION ST  ,37.80054,-122.40928
6527,SUNSET BLVD & IRVING ST  ,37.762621,-122.495784
6528,SUNSET BLVD & IRVING ST  ,37.762496,-122.495955
6529,SUNSET BLVD & JUDAH ST  ,37.761006,-122.495851
6530,SUNSET BLVD & JUDAH ST  ,37.760765,-122.495656
6531,SUNSET BLVD & KIRKHAM ST  ,37.759132,-122.495713
6532,SUNSET BLVD & KIRKHAM ST  ,37.758891,-122.495518
6533,SUNSET BLVD & LAKE MERCED BLVD,37.73034,-122.493518
6534,SUNSET BLVD & LAKE MERCED BLVD,37.729804,-122.493655
6535,SUNSET BLVD & LAWTON ST  ,37.757267,-122.495585
6536,SUNSET BLVD & LAWTON ST  ,37.757026,-122.49539
6537,SUNSET BLVD & MORAGA ST  ,37.755402,-122.495458
6538,SUNSET BLVD & MORAGA ST  ,37.755162,-122.495263
6539,SUNSET BLVD & NORIEGA ST  ,37.753538,-122.495319
6540,SUNSET BLVD & NORIEGA ST  ,37.753297,-122.495124
6541,SUNSET BLVD & OCEAN AVE  ,37.732026,-122.493862
6542,SUNSET BLVD & OCEAN AVE  ,37.73183,-122.493622
6543,SUNSET BLVD & ORTEGA ST  ,37.751798,-122.49502
6544,SUNSET BLVD & ORTEGA ST  ,37.751307,-122.495169
6545,SUNSET BLVD & PACHECO ST  ,37.749808,-122.495065
6546,SUNSET BLVD & PACHECO ST  ,37.749567,-122.49487
6547,SUNSET BLVD & QUINTARA ST  ,37.748068,-122.494766
6548,SUNSET BLVD & QUINTARA ST  ,37.747578,-122.494915
6549,SUNSET BLVD & RIVERA ST  ,37.746079,-122.494799
6550,SUNSET BLVD & RIVERA ST  ,37.745838,-122.494604
6553,SUNSET BLVD & SANTIAGO ST  ,37.744223,-122.494672
6554,SUNSET BLVD & SANTIAGO ST  ,37.743982,-122.494477
6555,SUNSET BLVD & TARAVAL ST  ,37.742349,-122.494545
6556,SUNSET BLVD & TARAVAL ST  ,37.742108,-122.49435
6557,SUNSET BLVD & ULLOA ST  ,37.740243,-122.494211
6558,SUNSET BLVD & ULLOA ST  ,37.740118,-122.494383
6559,SUNSET BLVD & VICENTE ST  ,37.738619,-122.494279
6560,SUNSET BLVD & VICENTE ST  ,37.738379,-122.494084
6561,SUNSET BLVD & WAWONA ST  ,37.736764,-122.494152
6562,SUNSET BLVD & WAWONA ST  ,37.736541,-122.493911
6563,SUNSET BLVD & YORBA ST  ,37.734854,-122.493784
6564,SUNSET BLVD & YORBA ST  ,37.734783,-122.494059
6565,1725 SUNNYDALE AVE  ,37.71279,-122.41954
6566,1800 SUNNYDALE AVE  ,37.712972,-122.419952
6567,1900 SUNNYDALE AVE  ,37.7134,-122.42138
6568,1901 SUNNYDALE AVE  ,37.71322,-122.42115
6569,SUNNYDALE AVE & BAY SHORE BLVD ,37.708944,-122.405204
6570,SUNNYDALE AVE & CORA ST   ,37.710007,-122.409521
6571,SUNNYDALE AVE & CORA ST  ,37.710203,-122.409612
6573,SUNNYDALE AVE & GARRISON AVE,37.710981,-122.413024
6574,SUNNYDALE AVE/MCLAREN SCHOOL,37.713704,-122.422116
6575,SUNNYDALE AVE/MCLAREN SCHOOL,37.713553,-122.422219
6576,SUNNYDALE AVE & RUTLAND ST   ,37.70986,-122.40851
6577,SUNNYDALE AVE & SANTOS ST  ,37.712419,-122.418177
6578,SUNNYDALE AVE & SANTOS ST  ,37.712231,-122.417536
6580,SUNNYDALE AVE & SAWYER ST,37.71163,-122.41521
6582,SUNNYDALE AVE & SCHWERIN ST,37.71059,-122.4115
6583,SUNNYDALE AVE & TALBERT ST   ,37.70935,-122.40669
6584,SUNNYDALE AVE & TALBERT ST   ,37.70935,-122.407
6585,SUTTER ST & BAKER ST  ,37.784889,-122.443067
6586,SUTTER ST & BAKER ST  ,37.784766,-122.443306
6587,SUTTER ST & BUCHANAN ST  ,37.786577,-122.429863
6588,SUTTER ST & BUCHANAN ST  ,37.786502,-122.429608
6589,SUTTER ST & DIVISADERO ST  ,37.78531,-122.439732
6590,SUTTER ST & DIVISADERO ST  ,37.785259,-122.43943
6591,SUTTER ST & FILLMORE ST  ,37.786158,-122.433151
6592,SUTTER ST & FILLMORE ST  ,37.786086,-122.432828
6593,SUTTER ST & GOUGH ST  ,37.787207,-122.424924
6594,SUTTER ST & HYDE ST  ,37.788216,-122.416908
6595,SUTTER ST & JONES ST  ,37.788643,-122.413618
6596,SUTTER ST & KEARNY ST  ,37.789818,-122.404378
6597,SUTTER ST & LARKIN ST  ,37.788011,-122.418536
6598,SUTTER ST & LEAVENWORTH ST  ,37.788429,-122.415269
6599,SUTTER ST & LAGUNA ST  ,37.786724,-122.428706
6600,SUTTER ST & LAGUNA ST  ,37.786647,-122.428457
6601,SUTTER ST & MASON ST  ,37.789062,-122.410316
6602,SUTTER ST & OCTAVIA ST  ,37.786933,-122.427062
6603,SUTTER ST & POLK ST  ,37.787797,-122.420198
6604,SUTTER ST & POWELL ST  ,37.789266,-122.408677
6605,SUTTER ST & PRESIDIO AVE  ,37.784383,-122.446175
6606,SUTTER ST & SANSOME ST  ,37.790298,-122.400674
6607,SUTTER ST & SCOTT ST  ,37.78552,-122.438078
6608,SUTTER ST & SCOTT ST  ,37.785402,-122.438322
6609,SUTTER ST & STEINER ST  ,37.785942,-122.434793
6610,SUTTER ST & STEINER ST  ,37.785794,-122.435028
6611,SUTTER ST & STOCKTON ST  ,37.78948,-122.407026
6612,SUTTER ST & TAYLOR ST  ,37.788857,-122.411956
6613,SUTTER ST & VAN NESS AVE  ,37.78763,-122.42154
6615,TARAVAL ST & 17TH AVE  ,37.743069,-122.47366
6616,TARAVAL ST & 19TH AVE  ,37.74311,-122.475444
6617,TARAVAL ST & 19TH AVE  ,37.742971,-122.475821
6619,TARAVAL ST & 22ND AVE  ,37.74289,-122.478426
6620,TARAVAL ST & 23RD AVE  ,37.742872,-122.48045
6622,TARAVAL ST & 26TH AVE  ,37.74278,-122.483068
6623,TARAVAL ST & 26TH AVE  ,37.742653,-122.483324
6626,TARAVAL ST & 30TH AVE  ,37.74259,-122.487338
6627,TARAVAL ST & 30TH AVE  ,37.742461,-122.487615
6628,TARAVAL ST & 32ND AVE  ,37.74249,-122.489489
6629,TARAVAL ST & 32ND AVE  ,37.742355,-122.489749
6631,TARAVAL ST & 35TH AVE  ,37.742235,-122.492961
6632,TARAVAL ST & 40TH AVE  ,37.742124,-122.498055
6633,TARAVAL ST & 40TH AVE  ,37.74199,-122.498316
6634,TARAVAL ST & 42ND AVE  ,37.742021,-122.500202
6635,TARAVAL ST & 42ND AVE  ,37.7419,-122.500461
6636,TARAVAL ST & 44TH AVE  ,37.741924,-122.502346
6637,TARAVAL ST & 44TH AVE  ,37.741804,-122.502606
6638,TARAVAL ST & 46TH AVE  ,37.741823,-122.50449
6640,TARAVAL ST & SUNSET BLVD  ,37.742287,-122.494361
6641,TARAVAL ST & SUNSET BLVD  ,37.742188,-122.49451
6642,TAYLOR ST & BAY ST   ,37.805231,-122.415192
6644,TAYLOR ST & BAY ST  ,37.805257,-122.415307
6645,TAYLOR ST & COLUMBUS AVE  ,37.803758,-122.414998
6646,TAYLOR ST & FRANCISCO ST  ,37.804383,-122.414952
6651,115 TELEGRAPH HILL BLVD,37.801766,-122.405677
6652,225 TELEGRAPH HILL BLVD,37.803006,-122.406789
6653,225 TELEGRAPH HILL BLVD,37.802988,-122.40664
6654,TELEGRAPH HILL BLVD & FILBERT ST  ,37.801846,-122.405735
6655,TELEGRAPH HILL BLVD & GREENWICH ST  ,37.802721,-122.406617
6656,TELEGRAPH HILL BLVD & GREENWICH ST  ,37.802605,-122.406457
6657,TENNESSEE ST & 18TH ST  ,37.7629,-122.389664
6658,636 TERESITA BLVD  ,37.73679,-122.445672
6659,636 TERESITA BLVD  ,37.736835,-122.445867
6660,900 TERESITA BLVD  ,37.733953,-122.446359
6661,900 TERESITA BLVD  ,37.73399,-122.44664
6662,TERESITA BLVD & BELLA VISTA WAY,37.7377,-122.446634
6663,TERESITA BLVD & EL SERENO CT  ,37.738931,-122.44605
6664,TERESITA BLVD & EL SERENO CT  ,37.738967,-122.446245
6665,TERESITA BLVD & EVELYN WAY   ,37.743063,-122.451182
6666,TERESITA BLVD & FOERSTER ST   ,37.735693,-122.446462
6667,TERESITA BLVD & FOERSTER ST  ,37.734345,-122.448776
6668,TERESITA BLVD & FOERSTER ST  ,37.735523,-122.446325
6669,TERESITA BLVD & FOWLER AVE   ,37.743491,-122.451388
6670,TERESITA BLVD & GAVIOTA WAY  ,37.739895,-122.447734
6671,TERESITA BLVD & GAVIOTA WAY  ,37.73985,-122.448009
6672,TERESITA BLVD & ISOLA WAY   ,37.74184,-122.450472
6673,TERESITA BLVD & ISOLA WAY   ,37.741733,-122.450529
6675,TERESITA BLVD & MARIETTA DR  ,37.737477,-122.446336
6676,TERESITA BLVD & MARIETTA DR  ,37.742599,-122.450655
6677,TERESITA BLVD & PORTOLA DR,37.745079,-122.452099
6678,TERESITA BLVD & REPOSA WAY   ,37.740975,-122.449223
6679,TERESITA BLVD & REPOSA WAY   ,37.740707,-122.449177
6680,TERESITA BLVD & STILLINGS AVE ,37.73447,-122.445283
6681,TERESITA BLVD & STILLINGS AVE ,37.734568,-122.4455
6684,TREASURE ISLAND RD/GUARD STATION,37.81622,-122.37144
6685,TREASURE ISLAND RD/GUARD STATION,37.81602,-122.3718
6686,TOLAND ST & JERROLD AVE  ,37.7439,-122.398814
6687,TOLAND ST & JERROLD AVE   ,37.743936,-122.399009
6688,TOLAND ST & MCKINNON AVE   ,37.742313,-122.400442
6689,TOLAND ST & NEWCOMB AVE  ,37.741492,-122.400992
6690,TOLAND ST & OAKDALE AVE   ,37.741073,-122.401565
6691,TOWNSEND ST & 3RD ST   ,37.778981,-122.392452
6692,TOWNSEND ST & 3RD ST   ,37.778723,-122.393037
6694,TOWNSEND ST & 4TH ST   ,37.777189,-122.394975
6695,TOWNSEND ST & 4TH ST   ,37.777028,-122.395032
6696,TOWNSEND ST & 5TH ST   ,37.775432,-122.3972
6697,TOWNSEND ST & 5TH ST   ,37.775227,-122.397211
6698,TOWNSEND ST & 6TH ST   ,37.773675,-122.399424
6699,TOWNSEND ST & 6TH ST   ,37.77347,-122.399436
6700,TOWNSEND ST & 7TH ST   ,37.771758,-122.401695
6701,TOWNSEND ST & 7TH ST   ,37.771695,-122.401947
6702,TOPEKA AVE & BRIDGE VIEW DR   ,37.7333,-122.39762
6703,TOPEKA AVE & NEWHALL ST  ,37.7318,-122.39555
6704,TOPEKA AVE & THORNTON AVE   ,37.73117,-122.39527
6705,TOPEKA AVE & VENUS ST   ,37.73201,-122.39592
6706,TRUMBULL ST & CONGDON ST  ,37.73097,-122.42639
6707,TRUMBULL ST & CONGDON ST  ,37.73084,-122.42624
6708,TRUMBULL ST & STONEYBROOK AVE ,37.73095,-122.42192
6709,TURK ST & ARGUELLO BLVD  ,37.77715,-122.45818
6710,TURK ST & BAKER ST  ,37.779288,-122.442174
6711,TURK ST & BAKER ST  ,37.779163,-122.442151
6712,TURK ST & BRODERICK ST  ,37.779511,-122.440295
6713,TURK ST & BRODERICK ST  ,37.779359,-122.440489
6714,TURK ST & CHABOT TER  ,37.778093,-122.451699
6715,TURK ST & CHABOT TER  ,37.778012,-122.451367
6716,TURK ST & CENTRAL AVE  ,37.778914,-122.445246
6717,TURK ST & CENTRAL AVE  ,37.778762,-122.445441
6718,TURK ST & HYDE ST  ,37.782621,-122.415856
6719,TURK ST & JONES ST  ,37.783039,-122.412577
6720,TURK ST & LARKIN ST  ,37.782461,-122.417197
6721,TURK ST & LEAVENWORTH ST  ,37.782835,-122.414217
6722,TURK ST & LYON ST  ,37.77911,-122.443596
6723,TURK ST & LYON ST  ,37.778958,-122.443791
6724,TURK ST & MASONIC AVE  ,37.778664,-122.447206
6725,TURK ST & MASONIC AVE  ,37.778548,-122.447138
6726,TURK ST & POLK ST  ,37.78218,-122.41926
6727,TURK ST & PARKER AVE  ,37.777905,-122.453281
6728,TURK ST & PARKER AVE  ,37.777754,-122.453476
6729,TURK ST & ROSELYN TER  ,37.778235,-122.44959
6730,TURK ST & ROSELYN TER  ,37.778351,-122.449659
6731,TURK ST & STANYAN ST  ,37.777637,-122.455367
6732,TURK ST & STANYAN ST  ,37.777557,-122.455035
6733,TURK ST & TAYLOR ST   ,37.783387,-122.409895
6734,TURK ST & VAN NESS AVE  ,37.78195,-122.42107
6735,ULLOA ST & 30TH AVE  ,37.74072,-122.48722
6736,ULLOA ST & FOREST SIDE AVE  ,37.741535,-122.46847
6737,ULLOA ST & FOREST SIDE AVE  ,37.741435,-122.4688
6738,ULLOA ST & LENOX WAY  ,37.741125,-122.466155
6739,WEST PORTAL STATION   ,37.740947,-122.4658
6740,WEST PORTAL STATION  ,37.74125,-122.465457
6744,ULLOA ST & WEST PORTAL AVE   ,37.74092,-122.466006
6745,UNION ST & BAKER ST  ,37.795902,-122.445314
6746,UNION ST & BAKER ST  ,37.79575,-122.445509
6748,UNION ST & BUCHANAN ST  ,37.797427,-122.432302
6750,UNION ST & COLUMBUS AVE   ,37.800348,-122.410173
6751,UNION ST & COLUMBUS AVE  ,37.800277,-122.41031
6752,UNION ST & DIVISADERO ST  ,37.796321,-122.44199
6753,UNION ST & DIVISADERO ST  ,37.79617,-122.442184
6754,UNION ST & FILLMORE ST  ,37.797124,-122.435661
6755,UNION ST & FILLMORE ST  ,37.797043,-122.435328
6756,UNION ST & GOUGH ST  ,37.798211,-122.427177
6757,UNION ST & GOUGH ST  ,37.79806,-122.427371
6758,UNION ST & GRANT AVE  ,37.80068,-122.4075
6759,UNION ST & GRANT AVE  ,37.8006,-122.40769
6760,UNION ST & HYDE ST  ,37.799271,-122.418956
6761,UNION ST & HYDE ST  ,37.79912,-122.419151
6762,UNION ST & JONES ST  ,37.79969,-122.415665
6763,UNION ST & JONES ST  ,37.799538,-122.41586
6764,UNION ST & KEARNY ST  ,37.800909,-122.405965
6765,UNION ST & KEARNY ST  ,37.800758,-122.406102
6766,UNION ST & LARKIN ST  ,37.799066,-122.420607
6767,UNION ST & LARKIN ST  ,37.79895,-122.420527
6768,UNION ST & LEAVENWORTH ST  ,37.799449,-122.417545
6769,UNION ST & LEAVENWORTH ST  ,37.799324,-122.417511
6770,UNION ST & LAGUNA ST  ,37.797792,-122.430456
6771,UNION ST & LAGUNA ST  ,37.797641,-122.430651
6772,UNION ST & LYON ST  ,37.795599,-122.446702
6773,UNION ST & MASON ST  ,37.800108,-122.412374
6774,UNION ST & MASON ST  ,37.799957,-122.412569
6775,UNION ST & MONTGOMERY ST  ,37.801087,-122.404474
6776,UNION ST & MONTGOMERY ST  ,37.800962,-122.404508
6777,UNION ST & PIERCE ST  ,37.79674,-122.438688
6778,UNION ST & PIERCE ST  ,37.796589,-122.438883
6779,UNION ST & POLK ST  ,37.798799,-122.422499
6780,UNION ST & POLK ST  ,37.798683,-122.42243
6781,UNION ST & STEINER ST ,37.79687,-122.43714
6782,UNION ST & STOCKTON ST  ,37.800366,-122.409267
6783,UNION ST & TAYLOR ST  ,37.799895,-122.414025
6785,UNION ST & TAYLOR ST  ,37.799743,-122.41422
6786,UNION ST & VAN NESS AVE  ,37.798585,-122.424241
6787,UNION ST & VAN NESS AVE  ,37.798469,-122.42415
6788,UNIVERSITY ST & BACON ST  ,37.72514,-122.41354
6789,UNIVERSITY ST & BACON ST  ,37.72499,-122.41339
6792,UNIVERSITY ST & FELTON ST  ,37.72739,-122.41439
6793,UNIVERSITY ST & WOOLSEY ST  ,37.72273,-122.41253
6796,UPPER TER & BUENA VISTA AVE WEST,37.76582,-122.4428
6797,UPPER TER & MASONIC AVE   ,37.76545,-122.44338
6798,VAN NESS AVE & BROADWAY  ,37.79608,-122.423331
6800,VAN NESS AVE & CHESTNUT ST  ,37.80258,-122.42464
6801,VAN NESS AVE & CHESTNUT ST  ,37.802431,-122.424905
6803,VAN NESS AVE & CLAY ST  ,37.79245,-122.4226
6804,VAN NESS AVE & EDDY ST  ,37.7832,-122.42073
6805,VAN NESS AVE & EDDY ST  ,37.7825,-122.42089
6806,VAN NESS AVE & BAY ST,37.804287,-122.424996
6813,VAN NESS AVE & JACKSON ST  ,37.794177,-122.423005
6814,VAN NESS AVE & JACKSON ST  ,37.793829,-122.423131
6815,VAN NESS AVE & MCALLISTER ST  ,37.780008,-122.42019
6816,VAN NESS AVE & MCALLISTER ST  ,37.779687,-122.420324
6817,VAN NESS AVE & MARKET ST  ,37.775216,-122.419252
6818,VAN NESS AVE & NORTH POINT ST ,37.805161,-122.425248
6819,VAN NESS AVE & NORTH POINT ST ,37.805063,-122.425351
6820,VAN NESS AVE & NORTH POINT ST ,37.805108,-122.425409
6821,VAN NESS AVE & OAK ST  ,37.775475,-122.419412
6823,VAN NESS AVE & O'FARRELL ST  ,37.784817,-122.421128
6828,VAN NESS AVE & SACRAMENTO ST  ,37.791349,-122.422593
6829,VAN NESS AVE & SUTTER ST  ,37.78783,-122.42166
6830,VAN NESS AVE & SUTTER ST  ,37.787396,-122.421838
6832,VAN NESS AVE & UNION ST  ,37.798603,-122.424046
6833,VAN NESS AVE & UNION ST  ,37.798487,-122.423932
6834,VAN NESS AVE & VALLEJO ST  ,37.79641,-122.4237
6835,VICENTE ST & 30TH AVE  ,37.738765,-122.487131
6836,VICENTE ST & 47TH AVE  ,37.738079,-122.50531
6837,VICENTE ST & WEST PORTAL AVE,37.73968,-122.46677
6838,VICENTE ST & WEST PORTAL AVE,37.73946,-122.46659
6839,VAN DYKE AVE & JENNINGS ST   ,37.72703,-122.38854
6840,VAN DYKE AVE & JENNINGS ST   ,37.72707,-122.38883
6841,VAN DYKE AVE & KEITH ST   ,37.72808,-122.39042
6842,VAN DYKE AVE & KEITH ST   ,37.72789,-122.39027
6843,VAN DYKE AVE & LANE ST   ,37.729202,-122.392238
6844,VESTA ST & PHELPS ST  ,37.73037,-122.39991
6845,VISITACION AVE & BRITTON ST   ,37.712765,-122.412371
6846,VISITACION AVE & BRITTON ST   ,37.71273,-122.41263
6847,VISITACION AVE & BAY SHORE BLVD,37.710567,-122.404493
6848,VISITACION AVE & CORA ST   ,37.7117,-122.40896
6850,VISITACION AVE & RUTLAND ST   ,37.711488,-122.407791
6851,VISITACION AVE & RUTLAND ST   ,37.71144,-122.40807
6852,VISITACION AVE & SAWYER ST   ,37.713283,-122.414237
6853,VISITACION AVE & SAWYER ST   ,37.71324,-122.41453
6854,VISITACION AVE & SCHWERIN ST   ,37.712247,-122.410504
6855,VISITACION AVE & SCHWERIN ST   ,37.71219,-122.41078
6877,VALENCIA ST & 24TH ST  ,37.75186,-122.42074
6878,VALENCIA ST & 25TH ST  ,37.75075,-122.42044
6879,VALENCIA ST & 25TH ST  ,37.75028,-122.42059
6881,VALENCIA ST & CESAR CHAVEZ ST ,37.748217,-122.420213
6882,VALENCIA ST & CESAR CHAVEZ ST ,37.747994,-122.420351
6886,VALENCIA ST & DUNCAN ST  ,37.74674,-122.42024
6896,WEST PORTAL AVE & 14TH AVE   ,37.737868,-122.469053
6898,WEST PORTAL AVE & 14TH AVE   ,37.737859,-122.469042
6899,WEST PORTAL AVE & 15TH AVE   ,37.736485,-122.470519
6904,WEST PORTAL AVE & VICENTE ST   ,37.73984,-122.46698
6905,WEST PORTAL AVE & VICENTE ST   ,37.739617,-122.46698
6906,WALNUT ST & CALIFORNIA ST   ,37.787492,-122.44852
6907,117 WARREN DR   ,37.75368,-122.457977
6908,345 WARREN DR E   ,37.755402,-122.461312
6909,400 WARREN DR E   ,37.75691,-122.461484
6910,455 WARREN DR,37.757722,-122.461897
6911,WARREN DR & CHRISTOPHER DR,37.75376,-122.459971
6912,WARREN DR & DEVONSHIRE WAY   ,37.754474,-122.461083
6913,WARREN DR & LOCKSLEY AVE  ,37.758694,-122.463135
6914,WARREN DR & OAKPARK DR  ,37.75534,-122.45635
6915,WASHINGTON ST & BUCHANAN ST  ,37.791921,-122.431191
6916,WASHINGTON ST & FILLMORE ST  ,37.791503,-122.434481
6917,WASHINGTON ST & FRANKLIN ST  ,37.792759,-122.42461
6918,WASHINGTON ST & GOUGH ST  ,37.792545,-122.42625
6919,WASHINGTON ST & HYDE ST  ,37.79363,-122.41804
6920,WASHINGTON ST & JONES ST   ,37.794042,-122.414693
6921,WASHINGTON ST & LARKIN ST  ,37.79341,-122.4198
6922,WASHINGTON ST & LEAVENWORTH ST ,37.793828,-122.416287
6923,WASHINGTON ST & LAGUNA ST  ,37.79218,-122.429116
6924,WASHINGTON ST & MASON ST   ,37.79453,-122.41136
6925,WASHINGTON ST & MASON ST  ,37.794442,-122.411529
6926,WASHINGTON ST & POLK ST  ,37.793187,-122.421274
6927,WASHINGTON ST & POWELL ST  ,37.794629,-122.410038
6928,WASHINGTON ST & SANSOME ST  ,37.795733,-122.402064
6929,WASHINGTON ST & TAYLOR ST   ,37.794255,-122.413008
6930,WASHINGTON ST & VAN NESS AVE  ,37.79308,-122.42243
6931,WASHINGTON ST & WEBSTER ST  ,37.791716,-122.432842
6932,WAWONA/46TH AVE /SF ZOO,37.736125,-122.504351
6933,WOODSIDE AVE & BALCETA AVE  ,37.746489,-122.456441
6934,WOODSIDE AVE & HERNANDEZ AVE  ,37.74638,-122.45535
6935,WOODSIDE AVE & HERNANDEZ AVE,37.746283,-122.455593
6937,WOODSIDE AVE & PORTOLA DR   ,37.745766,-122.452431
6938,WOODSIDE AVE & PORTOLA DR   ,37.745623,-122.452225
6939,WOODSIDE AVE & ULLOA ST  ,37.745766,-122.453829
6940,WOODSIDE AVE & ULLOA ST  ,37.745695,-122.454058
6942,356 WILDE AVE   ,37.71705,-122.40438
6944,WILDE AVE & BRUSSELS ST   ,37.716357,-122.401237
6945,WILDE AVE & DELTA ST   ,37.71782,-122.40718
6946,WILDE AVE & GIRARD ST,37.716615,-122.400252
6949,WILDE AVE & GOETTINGEN ST  ,37.716286,-122.402302
6950,WINSTON DR & 20TH AVE  ,37.727017,-122.475922
6951,WINSTON DR & 20TH AVE  ,37.726883,-122.475739
6952,WINSTON DR & BUCKINGHAM WAY   ,37.72806,-122.478488
6953,WINSTON DR & BUCKINGHAM WAY   ,37.727997,-122.478672
6954,WINSTON DR & LAKE MERCED BLVD ,37.727122,-122.483299
6955,WINSTON DR & LAKE MERCED BLVD ,37.726979,-122.48331
6957,WISCONSIN ST & 22ND ST  ,37.75719,-122.39886
6961,WISCONSIN ST & 25TH ST  ,37.752287,-122.398556
6962,WISCONSIN ST & 26TH ST  ,37.751279,-122.398282
6964,WISCONSIN ST & CONNECTICUT ST ,37.753447,-122.39867
6966,WISCONSIN ST & MADERA ST  ,37.75577,-122.39872
6968,WILLIAMS AVE & 3RD ST   ,37.72938,-122.39295
6969,WILLIAMS AVE & 3RD ST   ,37.72925,-122.39285
6970,WILLIAMS AVE & REDDY ST  ,37.72973,-122.39525
6971,WOOLSEY ST & BOWDOIN ST  ,37.72349,-122.40941
6972,WOOLSEY ST & BOWDOIN ST  ,37.72338,-122.40961
6978,WOOLSEY ST & HAMILTON ST  ,37.72374,-122.40841
6979,WOOLSEY ST & HAMILTON ST  ,37.72362,-122.40864
6980,WOOLSEY ST & UNIVERSITY ST  ,37.72271,-122.41238
6981,WHITNEY ST & FAIRMOUNT STREET  ,37.738903,-122.427491
6982,WHITNEY YOUNG CIR & PROGRESS ST,37.733337,-122.383322
6983,WHITNEY YOUNG CIR & PROGRESS ST,37.733248,-122.383082
6984,CROSS OVER DR & FULTON ST  ,37.77235,-122.484077
6985,YERBA BUENA AVE & BRENTWOOD AVE,37.733604,-122.45896
6986,YERBA BUENA AVE & BRENTWOOD AVE,37.733702,-122.459189
6987,YERBA BUENA AVE & HAZELWOOD AVE,37.734559,-122.459659
6988,YERBA BUENA AVE & HAZELWOOD AVE,37.734389,-122.459705
6989,YERBA BUENA AVE & RAVENWOOD DR ,37.73531,-122.46055
6990,YERBA BUENA AVE & SAINT ELMO WAY ,37.732623,-122.458719
6991,METRO CASTRO STATION/OUTBOUND,37.762683,-122.435289
6992,METRO EMBARCADERO STATION,37.793134,-122.396431
6993,FOREST HILL STATION OUTBOUND ,37.74817,-122.459192
6994,METRO MONTGOMERY STATION/OUTBOUND ,37.788791,-122.402127
6995,METRO POWELL STATION/OUTBOUND ,37.7843,-122.407822
6996,VAN NESS STATION OUTBOUND ,37.775234,-122.41934
6997,METRO CIVIC CENTER STATION/OUTBD ,37.778675,-122.414995
6998,METRO CHURCH STATION/OUTBOUND,37.767327,-122.429321
6999,7TH ST & BRYANT ST   ,37.774587,-122.405005
7004,AVENUE B & 9TH AVE,37.823245,-122.374986
7006,BLANKEN AVE & GILLETTE AVE,37.71097,-122.39661
7007,BLANKEN AVE & GILLETTE AVE,37.711,-122.39636
7008,BLANKEN AVE & NUEVA AVE,37.71121,-122.39723
7009,BLANKEN AVE & NUEVA AVE,37.71119,-122.39747
7010,BLANKEN AVE & PENINSULA AVE,37.71159,-122.39919
7011,BLANKEN AVE & PENINSULA AVE,37.71162,-122.39896
7012,BLANKEN AVE & TUNNEL AVE,37.71201,-122.40092
7019,CLEMENT ST & 8TH AVE,37.782893,-122.466422
7020,CRESTLINE DR & BURNETT AVE,37.7493,-122.44508
7023,831 ELLSWORTH ST,37.73327,-122.41526
7025,FREDERICK ST & MASONIC ST,37.76735,-122.444823
7026,HAHN ST & VISITACION AVE,37.713301,-122.415486
7027,LINCOLN BLVD & GIRARD RD,37.800604,-122.454016
7028,LOMBARD & RICHARDSON AVE,37.798668,-122.445108
7032,OAKDALE AVE & LOOMIS ST,37.742528,-122.404165
7036,OCEAN AVE & GENEVA AVE,37.723031,-122.452453
7038,POWELL ST & BEACH ST,37.807604,-122.412248
7039,RUTLAND ST & ARLETA AVE,37.713852,-122.406724
7041,RUTLAND ST & CAMPBELL AVE,37.71534,-122.40619
7044,RUTLAND ST & SUNNYDALE AVE,37.7099,-122.408536
7046,RUTLAND ST & VISITACION AVE,37.71135,-122.40793
7056,UNION ST & BUCHANAN ST,37.797578,-122.432107
7057,VISITACION VALLEY MIDDLE SCHOOL,37.71621,-122.413938
7058,WEST PORTAL AVE & ULLOA ST,37.740893,-122.465846
7061,WILDE AVE & RUTLAND ST,37.717349,-122.405211
7065,19TH AVE & HOLLOWAY AVE,37.721244,-122.475096
7067,CAYUGA AVE & ONONDAGA AVE,37.72205,-122.43975
7073,CHURCH ST & MARKET ST,37.767509,-122.428927
7074,CHURCH ST & DUBOCE AVE,37.76932,-122.42903
7077,EVANS AVE & MENDELL ST,37.740905,-122.384564
7078,JUAN BAUTISTA CIR & FONT BLVD,37.71749,-122.47744
7092,JUDAH ST & 31ST AVE,37.76107,-122.48949
7099,MISSION ST & SAN JOSE AVE,37.705997,-122.461372
7101,OCEAN AVE & JULES AVE,37.72491,-122.4614
7102,OCEAN AVE & MIRAMAR AVE,37.72426,-122.45834
7103,OCEAN AVE & CERRITOS AVE,37.72722,-122.46678
7106,OCEAN AVE & VICTORIA ST,37.72598,-122.46436
7109,WEST PORTAL/SLOAT/ST FRANCIS CIRCLE,37.734825,-122.471446
7111,SAN JOSE AVE & MT VERNON AVE,37.71847,-122.44864
7113,JUNIPERO SERRA BLVD & OCEAN AVE,37.731628,-122.471707
7114,JUNIPERO SERRA BLVD & OCEAN AVE,37.731271,-122.471818
7120,JUDAH ST & 40TH AVE,37.76064,-122.49914
7122,JUDAH ST & 22ND AVE,37.76149,-122.47983
7125,WEST PORTAL AVE & 14TH AVE,37.738064,-122.468984
7126,22ND ST & IOWA ST,37.7577,-122.39176
7127,GENEVA AVE & RIO VERDE ST,37.707136,-122.415706
7128,TIOGA AVE & RUTLAND ST,37.7166,-122.40572
7129,MISSION ST & 7TH ST,37.779354,-122.410505
7142,CALIFORNIA ST & VAN NESS AVE,37.790412,-122.422238
7145,THE EMBARCADERO & BRANNAN ST,37.784627,-122.387977
7149,LETTERMAN DR & LOMBARD ST,37.798052,-122.45013
7151,PORTOLA AVE & CLAREMONT AVE,37.73985,-122.46504
7155,SAN JOSE AVE & GENEVA AVE,37.721907,-122.447436
7160,CALIFORNIA ST & 8TH ST,37.784792,-122.466819
7166,4TH ST & KING ST,37.776278,-122.393864
7170,3RD ST & EVANS AVE,37.742709,-122.387931
7171,PAUL AVE & CARR ST,37.722404,-122.395667
7179,BAY SHORE BLVD & SUNNYDALE AVE,37.708837,-122.405067
7181,COLUMBUS AVE & CHESTNUT ST,37.80283,-122.413978
7185,BROADWAY & GRANT AVE,37.797849,-122.407342
7186,LINCOLN WAY & 19TH AVE,37.765437,-122.477209
7187,MIDDLE POINT RD & HARE ST,37.734388,-122.379358
7188,BUSH ST & BATTERY ST,37.791315,-122.399676
7191,SAN BRUNO AVE & SOMERSET ST,37.713395,-122.401995
7193,GRAFTON AVE & PLYMOUTH AVE,37.720104,-122.457034
7194,GRAFTON AVE & CAPITOL AVE,37.720104,-122.459072
7195,GRAFTON AVE & JULES AVE,37.720095,-122.461111
7196,GARFIELD ST & VICTORIA ST,37.719764,-122.465234
7203,JACKSON ST & POLK ST,37.794177,-122.421732
7204,CABRILLO ST & LA PLAYA ST,37.773206,-122.509876
7205,WEST PORTAL AVE & SLOAT BLVD,37.734914,-122.4714
7208,SLOAT BLVD & 47TH AVE,37.735394,-122.50493
7209,CRESCENT AVE & ELLSWORTH ST,37.734733,-122.415052
7211,20TH AV/MACY'S STONESTOWN,37.728783,-122.475786
7213,CORTLAND AVE & BRONTE ST,37.739711,-122.41017
7214,5TH ST & FOLSOM ST,37.78044,-122.403466
7215,ELLIS ST & MASON ST,37.785358,-122.409367
7217,METRO EMBARCADERO STATION,37.793152,-122.396431
7219,JUDAH/LA PLAYA/OCEAN BEACH,37.760349,-122.508685
7220,ASHBURY ST & CLAYTON ST,37.763014,-122.446966
7223,UNION ST & STEINER ST ,37.796874,-122.43714
7227,MARKET ST & STEUART ST,37.794454,-122.394917
7228,DUNCAN ST & AMBER DR,37.746016,-122.443483
7229,DIAMOND HEIGHTS BLVD & DUNCAN ST,37.746676,-122.443208
7230,PLYMOUTH AVE & BROAD ST,37.713279,-122.456174
7231,16TH AVENUE AT LAWTON STREET,37.758023,-122.473791
7234,BATTERY ALEXANDER/FIELD RD,37.824784,-122.530185
7235,TOWNSEND ST & 4TH ST,37.777278,-122.394631
7236,FONT BLVD & GONZALEZ DR,37.716711,-122.476033
7248,BRAZIL AVE & PRAGUE ST,37.720522,-122.425882
7249,GRAFTON AVE AT PLYMOUTH AVE,37.72014,-122.455923
7250,ARGUELLO BLVD & EUCLID AVE,37.783258,-122.459105
7251,DIAMOND ST (SOUTH)/DIAMOND HTS,37.73828,-122.437252
7252,DUBOCE ST/NOE ST/DUBOCE PARK,37.769392,-122.433694
7253,MARKET ST & CASTRO ST,37.762451,-122.435541
7263,24TH ST & NOE ST  ,37.751377,-122.431991
7264,MARKET ST & 1ST ST ,37.79094,-122.399195
7281,EMBARCADERO & SANSOME ST ,37.805146,-122.403233
7282,CARL ST & COLE ST,37.765878,-122.450094
7283,THE EMBARCADERO & FERRY BUILDING ,37.794828,-122.39377
7285,EVANS AVE & QUINT ST ,37.744039,-122.390473
7286,EVANS AVE & SELBY ST ,37.746164,-122.39392
7287,LARKIN ST&MCALLISTER ST,37.780382,-122.416843
7288,SILVER AVE&SANTA FE AVE ,37.734773,-122.401592
7289,16TH ST & FOLSOM ST ,37.7654,-122.415428
7290,CASTRO ST & 26TH ST ,37.748201,-122.433893
7294,CALIFORNIA ST & DAVIS ST,37.793527,-122.396797
7295,ASHBURY ST & FREDERICK ST ,37.767305,-122.446473
7297,SUNNYDALE AVE & BAY SHORE BLVD ,37.708801,-122.40525
7298,POTRERO AVE&15TH ST,37.767334,-122.407623
7299,MISSION ST & SOUTH VAN NESS AVE,37.772994,-122.418485
7300,GENEVA AVE&CARTER ST,37.709306,-122.423217
7301,O'FARRELL ST&TAYLOR ST,37.78585,-122.41198
7302,BUSH ST & SANSOME ST,37.791066,-122.400949
7303,3RD ST & CARROLL AVE,37.725482,-122.394245
7304,GENEVA AVE&CARTER ST,37.709083,-122.423102
7306,WEST PORTAL AVE & 14TH AVE ,37.738091,-122.469042
7307,MYRA WAY & REPOSA WAY,37.740038,-122.450541
7308,7TH AVE & LAWTON ST,37.758426,-122.463856
7310,ROOSEVELT WAY&BUENA VISTA TER,37.766698,-122.438279
7312,FOLSOM ST & 24TH ST,37.752444,-122.414128
7313,BAY SHORE BLVD & ALEMANY BLVD ,37.738371,-122.407306
7315,MASON ST & O'FARRELL ST ,37.786099,-122.409767
7316,CHURCH ST & 14TH ST,37.767786,-122.428996
7318,SUNSET TUNNEL EAST PORTAL ,37.769134,-122.433076
7319,6TH ST & BRYANT ST,37.776157,-122.402598
7320,3RD ST & FITZGERALD AVE,37.723127,-122.395243
7321,3RD ST & GENE FRIEND WAY,37.769557,-122.389296
7324,3RD ST & GENE FRIEND WAY,37.769317,-122.389445
7325,GARFIELD ST&BYXBEE ST ,37.719585,-122.469953
7326,GARFIELD ST&VERNON ST ,37.719594,-122.468155
7328,LELAND AVE@ALPHA ST ,37.711897,-122.405775
7329,LELAND AVE@BAY SHORE BLVD ,37.711138,-122.403794
7330,RAYMOND AVE & RUTLAND ST,37.713343,-122.407148
7331,RAYMOND AVE & DELTA ST,37.713844,-122.409049
7332,RAYMOND AVE & SAWYER ST ,37.715032,-122.413469
7333,SAWYER ST & VISITACION AVE,37.713345,-122.414443
7334,BAY SHORE BLVD & BLANKEN AVE,37.712226,-122.402179
7335,RAYMOND AVE & ELLIOT ST,37.714424,-122.411213
7342,THIRD STREET/GILMAN/PAUL,37.722413,-122.395644
7343,THIRD STREET & CARROLL AVE ,37.725491,-122.394222
7344,THIRD STREET & CARROLL AVE,37.725464,-122.394256
7345,THIRD STREET & WILLIAMS AVE ,37.729291,-122.392604
7346,THIRD STREET & WILLIAMS AVE ,37.729264,-122.392638
7347,THIRD STREET/GILMAN/PAUL,37.722449,-122.39561
7352,THIRD STREET & EVANS AVE ,37.742726,-122.38792
7353,THIRD STREET & MARIN ST ,37.748999,-122.387445
7354,THIRD STREET & 23RD ST,37.755414,-122.388001
7355,THIRD STREET & 20TH ST,37.760518,-122.388558
7356,THIRD STREET & MARIPOSA ST ,37.764391,-122.388853
7357,UCSF/MISSION BAY,37.769049,-122.389308
7358,THIRD STREET & MISSION ROCK ST ,37.772993,-122.389717
7359,THIRD STREET & MISSION ROCK ST ,37.772832,-122.389717
7360,UCSF/MISSION BAY,37.76854,-122.389274
7361,THIRD STREET & MARIPOSA ST,37.764239,-122.388865
7362,THIRD STREET & 20TH ST ,37.760376,-122.388558
7363,THIRD STREET & 23RD ST ,37.75529,-122.388012
7364,THIRD STREET & MARIN ST ,37.749079,-122.387479
7365,THIRD STREET & EVANS AVE ,37.742727,-122.388034
7366,4TH ST & BERRY ST,37.776153,-122.393944
7376,THIRD ST & LE CONTE AVE,37.718809,-122.397468
7377,THIRD ST & MARIN ST,37.748945,-122.387422
7378,THIRD ST & MARIN ST,37.749097,-122.387571
7380,THE EMBARCADERO & HARRISON ST,37.78957,-122.388489
7381,THIRD ST & MARIPOSA ST,37.764427,-122.388761
7382,THIRD ST & MARIPOSA ST.,37.764177,-122.388945
7383,PRESIDIO TRANSIT CENTER,37.802299,-122.455759
7390,THIRD STREET/HUDSON/INNES,37.739916,-122.388907
7391,THIRD STREET/KIRKWOOD/LA SALLE,37.737641,-122.389711
7392,THIRD STREET/OAKDALE/PALOU,37.73435,-122.390859
7393,THIRD STREET/REVERE/SHAFTER,37.73228,-122.391536
7394,THIRD STREET & LE CONTE AVE,37.718827,-122.397491
7395,BAY SHORE BLVD/ARLETA/BLANKEN,37.712253,-122.402316
7396,BAY SHORE BLVD & SUNNYDALE AVE ,37.70897,-122.405113
7397,4TH ST & KING ST,37.776252,-122.394036
7398,BAY SHORE BLVD & SUNNYDALE AVE ,37.708944,-122.405044
7399,BAY SHORE BLVD/ARLETA/BLANKEN,37.712226,-122.402339
7400,THIRD STREET & LE CONTE AVE,37.718809,-122.397468
7401,THIRD STREET/REVERE/SHAFTER,37.732262,-122.391502
7402,THIRD STREET/OAKDALE/PALOU,37.734358,-122.390836
7403,THIRD STREET/KIRKWOOD/LA SALLE,37.737641,-122.389688
7404,THIRD STREET/HUDSON/INNES,37.739916,-122.388884
7405,4TH ST & KING ST,37.776323,-122.394001
7408,11TH ST/BTW MARKET & MISSION,37.775502,-122.418656
7410,HOWARD ST & NEW MONTGOMERY ST,37.78622,-122.399015
7423,MARKET ST & HYDE ST,37.778784,-122.414723
7425,MONTEREY BLVD & SAN ANSELMO AVE,37.733148,-122.465501
7428,NEWHALL ST & FAIRFAX AVE,37.741406,-122.387153
7431,SILVER AVE & LISBON ST,37.728606,-122.428571
7440,MUNI METRO EAST/NOT A PUBLIC STOP,37.752871,-122.38688
7444,CALIFORNIA ST & BATTERY ST,37.793127,-122.400099
7447,THE EMBARCADERO & BRANNAN ST,37.7846,-122.387954
7448,19TH AVE & WINSTON DR,37.727258,-122.475098
7449,19TH AVE & WINSTON DR,37.727195,-122.474846
7473,3RD ST & 22ND ST,37.758074,-122.388239
7476,VAN NESS AVE & NORTH POINT ST,37.80484,-122.425352
7499,FULTON STREET & SHRADER STREET,37.774907,-122.45312
7518,24TH STREET & POTRERO AVENUE,37.753067,-122.40621
7520,NOT A PUBLIC STOP,37.709523,-122.404631
7522,GENEVA STREET & SCHWERIN STREET,37.706296,-122.413084
7523,PENNSYLVANIA AVENUE & 23RD STREET,37.755158,-122.393008
7524,PENNSYLVANIA AVENUE & 25TH STREET,37.752624,-122.392758
7525,25TH AVENUE & DAKOTA STREET,37.752348,-122.394695
7526,PENNSYLVANIA AVENUE & 25TH STREET,37.752463,-122.39277
7527,PENNSYLVANIA AVENUE & 23RD STREET,37.755015,-122.392791
7528,FOERSTER STREET & MONTEREY BLVD,37.731695,-122.448753
7529,FRANCISCO STREET & POLK STREET,37.803377,-122.423793
7532,SOUTH VAN NESS AVE & 24TH ST,37.752275,-122.416167
7538,CABRILLO ST & 7TH AVE,37.775379,-122.464834
7539,CABRILLO ST & 7TH AVE,37.775263,-122.465006
7543,CLEMENT ST & 14 AVE,37.782498,-122.473077
7544,CONNECTICUT ST & 19TH ST,37.761326,-122.397473
7545,23RD ST & DAKOTA ST,37.754678,-122.396779
7546,DAKOTA ST & 23RD ST,37.754705,-122.396572
7547,2ND ST & TOWNSEND ST,37.780702,-122.390559
7548,2ND ST & HOWARD ST,37.786755,-122.398143
7549,2ND ST & STEVENSON ST,37.788282,-122.400068
7550,SANSOME ST & SUTTER ST,37.790352,-122.400502
7551,CESAR CHAVEZ ST & MISSION ST,37.7481,-122.418082
7552,FOLSOM ST & CESAR CHAVEZ ST,37.748376,-122.413579
7553,JACKSON ST & WEBSTER ST,37.792743,-122.432807
7554,MISSION ST & FLOURNOY,37.706613,-122.459196
7555,AVENUE H & CALIFORNIA ST,37.820001,-122.36633
7556,AVENUE H & 5TH ST,37.822375,-122.367968
7557,AVENUE H & 9TH ST,37.825232,-122.369914
7558,AVENUE H & 13TH ST,37.828311,-122.371964
7560,9TH ST & AVENUE D,37.824056,-122.372714
7561,HAYES ST & SHRADER ST,37.77306,-122.452513
7562,MISSION ST & SPEAR ST,37.79266,-122.394001
7563,MCALLISTER ST & JONES ST,37.781166,-122.412189
7568,DIVISADERO ST & BAY ST,37.801907,-122.443331
7572,17TH AVE & QUINTARA ST,37.748592,-122.473834
7573,QUINTARA ST & 17TH AVE,37.748833,-122.473799
7577,BERNAL HEIGHTS BLVD & POWHATTAN ST,37.741451,-122.411223
7582,ULLOA ST & WEST PORTAL AVE ARRIVE,37.740875,-122.46572
7590,9TH ST. & AVENUE D,37.823521,-122.373907
7592,CESAR CHAVEZ ST. & VALENCIA ST.,37.748056,-122.420064
7606,DALY CITY BART WEST STATION RD.,37.707049,-122.468655
7617,BEALE ST. & FOLSOM ST.,37.78885,-122.393086
7619,BEALE ST. & HOWARD ST.,37.789823,-122.394232
7620,MAIN ST. & HOWARD ST.,37.790545,-122.393303
7621,BEACH ST & DIVISADERO ST,37.803647,-122.443422
7622,5TH ST & BRANNAN ST,37.77645,-122.398723
7623,MAIN ST & HOWARD ST ,37.790608,-122.393326
7624,HERBST RD & AMORY RD ,37.730666,-122.501697
7626,ALEMANY BLVD & FLOSOM ST ,37.73327,-122.413919
7629,19 AVE & JUDA ST,37.761752,-122.47707
7631,JUDAH ST & 48TH AVE ,37.760367,-122.508032
7632,MENDELL ST & CARGO WAY ,37.743804,-122.383313
7635,MCALLISTER ST & LEAVENWORTH ST ,37.780889,-122.413587
7636,FILLMORE ST & HAIGHT ST ,37.772069,-122.430473
7638,OCEAN AVE & OTSEGO AVE ,37.723433,-122.440816
7645, CONZELMAN RD & MCCULLOUGH RD ,37.833698,-122.49381
7646,ALEXANDER DR & CONZELMAN RD ,37.833148,-122.483383
7647,CONZELMAN RD & MCCULLOUGH RD,37.833609,-122.493902
7649,MASON ST & GEARY BLVD,37.787214,-122.409962
7650,5TH ST & HARRISON ST ,37.77894,-122.401828
7651,5TH ST &STEVENSON ST,37.783502,-122.407625
7669,9TH ST AND MARKET ST,37.777375,-122.416305
7671,GENEVA AVE & MISSION ST ,37.716419,-122.441012
7676,HWARD ST&SPEAR,37.791339,-122.392408
7677,8TH ST&HOWARD,37.776133,-122.411606
7683,TOWNSEND ST & 8TH ST ,37.770233,-122.403828
7684,BRANNAN ST & 8TH ST,37.771322,-122.405237
7685,BURNETT AVE & DAWNVIEW WAY  ,37.748059,-122.444904
7687,PARNASSUS AVE &4TH AVE ,37.762522,-122.460947
7688,513 PARNASSUS AVE ,37.76279,-122.459961
7689,CRESCENT AVE & ANDERSON ST,37.734894,-122.415682
7691,FIELD RD & LIGHT HOUSE,37.821831,-122.529689
7692,FIELD RD & BODSWORTH RD ,37.830373,-122.524399
7696,BALBOA ST & PARK PRESIDIO BLVD,37.776904,-122.471918
7719,MIDDLE POINT & ACACIA,37.737074,-122.379516
7720,FULTON ST & 43RD AVE ,37.771612,-122.503296
7721,FULTON ST & PARK PRESIDIO ,37.772834,-122.476524
7727,FULTON S T& 28TH AVE,37.772474,-122.487504
7728,FULTON S T& 30TH AVE ,37.772375,-122.489624
7729,FULTON ST & 40TH AVE,37.77188,-122.50034
7730,FULTON ST T& 43RD  AVE ,37.771736,-122.503537
7732,FOLSOM ST & 20ST,37.758762,-122.414789
7733,FOLSOM ST & 20TH ST,37.758985,-122.414617
7736,VAN NESS AVE & O'FARRELL ST ,37.784907,-122.421334
7737,PACIFIC AVE & STOCKTON ST,37.796734,-122.408581
7742,MORSE ST & LOWELL ST,37.711021,-122.446211
7744,CESAR CHAVEZ & BARTLETT,37.748216,-122.419022
7746,FOLSOM & CESAR CHAVZ ST,37.748081,-122.413763
7747,EXECUTIVE PARK BLVD & THOMAS MELLON DR ,37.711241,-122.39358
7750,C. CHAVEZ ST&FLORIDA ST ,37.748374,-122.409558
7751,C. CHAVEZ ST&HARRISON ST ,37.748339,-122.41138
7755,WEST PORTAL AVE&ULLOA ST ,37.740849,-122.465835
7756,PALOU AVE&NEWHALL ST ,37.735162,-122.392886
7757,HAIGHT ST & GOUGH ST ,37.773084,-122.422301
7758,CROSS OVER DR&LINCOLN ST ,37.765544,-122.477243
7759,MISSION & MAIN ST,37.79184,-122.394953
7760,THORNTON DR&SCOTIA AVE ,37.731668,-122.399464
7761,16TH ST& RHODE ISLAND ST ,37.766012,-122.402592
7762,16TH ST & WISCONSIN ST,37.766225,-122.399681
7763,16TH ST & MISSOURI ST ,37.766402,-122.396782
7764,16TH ST & 4TH ST ,37.766765,-122.390719
7765,MISSION BAY NORTH & 3RD ST ,37.771164,-122.389616
7766,MISSION BAY SOUTH & 4TH ST SE-FS/ BZ,37.770513,-122.391037
7767,16TH STREET & 4TH STREET ,37.766864,-122.390891
7768,16TH STREET & MISSOURI ST ,37.766492,-122.397011
7769,16TH STREET & WISCONSIN ST ,37.766287,-122.399842
7770,16TH STREET & RHODE ISLANDI ST ,37.766119,-122.402627
7772,NEW HALL & HUDSON SW-FS/BZ,37.73997,-122.388403
7775,BEALE ST & HOWARD ST,37.78993,-122.394461
7776,TOWNSEND ST & 5TH ST,37.776324,-122.396133
7777,STOCKTON ST & JACKSON ST,37.795753,-122.408318
7778,SAN JOSE AVE & GENEVA AVE,37.721238,-122.446222
7783,PRESIDIOBLVD&LETTERMAN DR.SE-NS/SB,37.799123,-122.452423
7787,LOMBARD ST&GOUGH ST SE-FS/BZ,37.800861,-122.42768
7788,FONT BLVD & TAPIA DR NS/W/SB,37.720734,-122.481234
7789,FONT BLVD & SERRANO DR NS/W-SB,37.719592,-122.479905
7790,FONT BLVD & JUAN BAUTISA CIR.,37.718477,-122.478691
7792,BROTHERHOOD WAY & CHUMASERO DR W-NW/SB,37.713,-122.472779
7793,BROTHERHOOD WAY & SUMMIT WAY  NW-FS/SB,37.713758,-122.474566
7794,THE EMBARCADERO&HARRISON ST NW-NS/PS,37.789597,-122.388626
7795,THE EMBARCADERO&HARRSION ST NE-FS/PS,37.789677,-122.388535
7796,BROTHERHOOD WAY & GRACE SE-FS/SB,37.714488,-122.480224
7797,BROTHERHOOD WAY & CHURCH ACCESS RD SW-NS-SB,37.714132,-122.475574
7798,BROTHERHOOD WAY & SUMMIT WAY SE-FS/SB,37.713588,-122.474474
7799,VAN NESS AVE&NORTH POINT ST SE-NS/BZ,37.804876,-122.425237
7800,LOMBARD ST&GOUGH ST NW-FS/BZ,37.800942,-122.42807
7801,BROTHERHOOD WAY & GRACE COMMUNITY CHURCH NE-NS/SB,37.714595,-122.480189
7803,MISSION STT & STEUART ST NW-FS/SB,37.793204,-122.393381
7804,OCEAN AVE&I-280 ON-RAMP NE-NS/SB,37.723031,-122.446932
7805,CHUMASERO DR & GALINDO AVE ,37.714053,-122.473135
7806,FONT BLVD & MARY WARD HALL,37.722491,-122.483056
7807,BUCKINGHAM WAY & WINSTON DR ,37.728551,-122.479096
7808,FONT BLVD & MARY WARD HALL ,37.722759,-122.483629
7809,SF GENERAL HOSPITAL ,37.755208,-122.406667
7815,SKYLINE BLVD & SLOAT BLVD ,37.733702,-122.496578
7833,STEUART & DONCHEE WAY ,37.793766,-122.393725
7834,16TH ST & CHURCH ST ,37.764457,-122.428791
7835,37TH AVE & ORTEGA ST ,37.751298,-122.495559
7836,30TH AVE & GEARY BLVD,37.780771,-122.490064
7837,32ND AVE & ANZA ST,37.777737,-122.491999
7838,GIRARD ST & BURROWS ST ,37.727994,-122.404941
7839,ARGUELLO BLVD & GEARY BLVD ,37.781867,-122.458806
7840,CHESTNUT ST & FILLMORE ST ,37.800791,-122.436039
7841,MISSION ST & POWER ST,37.746245,-122.419401
7842,DALY CITY BART STATION,37.706514,-122.468632
7843,BEMIS ST & ADDISON ST,37.737931,-122.429462
7844,CALIFORNIA ST & 6TH AVE,37.784953,-122.464469
7851,LAKE MERCED & LAKESHORE ,37.72942,-122.494056
7852,LAKE MERCED & LAKESHORE ,37.729492,-122.49409
7853,LINCOLN WAY & 34TH AVE ,37.764709,-122.493413
7854,GEARY BLVD & ARGUELLO BLVD,37.781313,-122.458955
7856,CHESTNUT ST & GOUGH ST ,37.801825,-122.428104
7857,CHESTNUT ST & GOUGH ST ,37.801914,-122.427955
7858,MARKET ST & 7TH ST NORTH ,37.78063,-122.412407
7859,DUBOCE AVE & CHURCH ST,37.769463,-122.429122
7860,DONAHUE ST & INNES AVE ,37.728895,-122.370154
7862,BROADWAY & SANSOME ST,37.798392,-122.402343
7863,SANSOME ST & JACKSON ST ,37.796527,-122.401909
7864,BRYANT ST & DIVISION ST ,37.768932,-122.410888
7865,16TH STREET & OWEN ST,37.766722,-122.392805
7866,16TH ST & OWEN ST ,37.76665,-122.39253
7867,MIGUEL ST & LAIDLEY ST ,37.737761,-122.428294
7868,MIGUEL ST & LAIDLEY ST ,37.737752,-122.428248
7869,47TH AVE & CUTLER AVE ,37.736991,-122.505413
7883,TARAVEL ST &17TH AVE ,37.743087,-122.473374
7884,GOLDEN GATE AVE & LEAVENWORTH ST ,37.781826,-122.413793
7885,QUINTRA ST & 43RD AVE ,37.747584,-122.501583
7886,BAYSHORE BLVD & FLOWER ST ,37.742377,-122.405609
7887,201 BAYSHORE BLVD E,37.744616,-122.404187
7888,BAYSHORE BLVD & OAKDALE AVE ,37.743046,-122.405402
7899,SAN BRUNO AVE & HARKNESS AVE ,37.718043,-122.400114
7900,SAN BRUNO AVE & FELTON ST ,37.729912,-122.404631
7908,POTRERO AVE & 21ST ST,37.757858,-122.406723
7909,POTRERO AVE & 19TH ST ,37.76074,-122.407019
7910,POTRERO AVE & MARIPOSA ST ,37.763283,-122.407258
7911,POTRERO AVE & MARIPOSA ST ,37.763132,-122.407407
7912,POTRERO AVE & 19TH ST,37.760606,-122.407168
